{"html_attributions": [], "next_page_token": "CqQCIAEAABhdS1SDImE5BojKntK2y6vGgJYj3mwu9fQYY4xot6nXFS2WSX3zsdFpayCieSMOum9gqSqHd-qa6rzw4BvXfakt0Amv2uGV_CttWRQgnEZutyXNZm9r5RePzG9R-_hv_NoP7-qwZNUpvSe6cthIffmM_82x2jNkvpSBupwQWfgE6_hnTickh5bnFsMwRmHDjgmKIJrPEcU9y4xEhUbQN7BevIt5LfphvqUVWoknF2dwSiMl8eYtlT8zKNWa-3FFrtxF_1VLSDqR5GSON2RliBRhRrSFpt9rFh-TqAluc8VT9a8-uh8OUj4th30jxvhwFRmIQvO47YXjU--oKz71BOn2olt3-FJVsaob9kgwsQj0pTLqwCSkI9bPeJ8yMihgHBIQChHOTILqlf5PVUtqrwA0TRoUqurdKf65wq6MB-mY9Bg9UwXlEJI", "results": [{"geometry": {"location": {"lat": 47.38109959999999, "lng": 8.557557799999998}, "viewport": {"northeast": {"lat": 47.38217028029149, "lng": 8.558565080291503}, "southwest": {"lat": 47.3794723197085, "lng": 8.555867119708498}}}, "icon": "https://maps.gstatic.com/mapfiles/place_api/icons/restaurant-71.png", "id": "cf58c3e51925c199dd8a11ebfbe46909f63778df", "name": "Restaurant Bethania Park", "photos": [{"height": 900, "html_attributions": ["<a href=\"https://maps.google.com/maps/contrib/108828636323158672204\">Restaurant Bethania Park</a>"], "photo_reference": "CmRaAAAAM9ROfwHgP18zYdaq39V9b9YuiAziYVi4pgnrqnFcQem5EDD1hlWIy7jsg0EQQ2afUepWdzqtBKOcDXYbxhzj1ovMu3uxyeQzjM9ZKTtviLR_MZTM8j8p4apALkpOVh-nEhBBMrRBJbbekE-lkGzmTdViGhSMa9vxNSMWvaTQHkXuHizzv4q9bQ", "width": 1200}], "place_id": "ChIJ-8cCf8ChmkcRun945C0EJaU", "plus_code": {"compound_code": "9HJ5+C2 Z\u00fcrich, Switzerland", "global_code": "8FVC9HJ5+C2"}, "reference": "ChIJ-8cCf8ChmkcRun945C0EJaU", "scope": "GOOGLE", "types": ["restaurant", "food", "point_of_interest", "establishment"], "vicinity": "Restaurant Bethania Park Privatklinik Bethanien, Toblerstrasse 51, Z\u00fcrich"}, {"geometry": {"location": {"lat": 47.3861809, "lng": 8.560572499999997}, "viewport": {"northeast": {"lat": 47.38757848029149, "lng": 8.561876080291501}, "southwest": {"lat": 47.3848805197085, "lng": 8.559178119708497}}}, "icon": "https://maps.gstatic.com/mapfiles/place_api/icons/restaurant-71.png", "id": "27abb24e8a8f8e03ad31bff3ca35ecdb6ee6d689", "name": "Keine Information", "place_id": "ChIJnTVxo72hmkcRGieKRyIWSpo", "plus_code": {"compound_code": "9HP6+F6 Z\u00fcrich, Switzerland", "global_code": "8FVC9HP6+F6"}, "rating": 5, "reference": "ChIJnTVxo72hmkcRGieKRyIWSpo", "scope": "GOOGLE", "types": ["restaurant", "food", "point_of_interest", "establishment"], "user_ratings_total": 1, "vicinity": "Hinterbergstrasse 100, Z\u00fcrich"}, {"geometry": {"location": {"lat": 47.3823024, "lng": 8.550872}, "viewport": {"northeast": {"lat": 47.3835101802915, "lng": 8.552367830291503}, "southwest": {"lat": 47.3808122197085, "lng": 8.549669869708499}}}, "icon": "https://maps.gstatic.com/mapfiles/place_api/icons/cafe-71.png", "id": "ba04aec4fc810c5fa4c2d72e5715c1201ae277b8", "name": "Cafe Bar Meierei", "opening_hours": {"open_now": false}, "photos": [{"height": 3024, "html_attributions": ["<a href=\"https://maps.google.com/maps/contrib/115000441968188505450\">Cafe Bar Meierei</a>"], "photo_reference": "CmRaAAAA4WRp2IM-3qDuDvOYJd45N2enar8i6dS3bDeSt2KXflRz5cYkB6lmk_OZ1U9W_AsS7Wc4qm1wOk93W9AGzGKA6tsz9mjqy4kdfzc1qcyXaVpEcut3cW2rP80dIMQ4ZG3aEhAJ_kT2KcXHem7vG3RuLbIzGhRFPVF4fAlTnOQshEIS0YFEcfSKfQ", "width": 4032}], "place_id": "ChIJOabxY6GgmkcR8Z5D6GnN_zQ", "plus_code": {"compound_code": "9HJ2+W8 Z\u00fcrich, Switzerland", "global_code": "8FVC9HJ2+W8"}, "rating": 4.7, "reference": "ChIJOabxY6GgmkcR8Z5D6GnN_zQ", "scope": "GOOGLE", "types": ["cafe", "bar", "liquor_store", "restaurant", "food", "point_of_interest", "store", "establishment"], "user_ratings_total": 27, "vicinity": "Spyristrasse 9, Z\u00fcrich"}, {"geometry": {"location": {"lat": 47.38271899999999, "lng": 8.550536}, "viewport": {"northeast": {"lat": 47.3840152302915, "lng": 8.551944880291503}, "southwest": {"lat": 47.3813172697085, "lng": 8.549246919708498}}}, "icon": "https://maps.gstatic.com/mapfiles/place_api/icons/generic_business-71.png", "id": "c2974132dbc4842baf9c29049750ef9b2dfebb6f", "name": "dieci Pizzakurier Z\u00fcrichberg", "opening_hours": {"open_now": false}, "photos": [{"height": 1920, "html_attributions": ["<a href=\"https://maps.google.com/maps/contrib/107598774757412501777\">dieci Pizzakurier Z\u00fcrichberg</a>"], "photo_reference": "CmRaAAAA3SqzF7rN-NHP3rRDunkwwdf-eA3Tx2sFBk-tBDov7qphXWnU9j3vVCamhhc7spxCMNlZP6W3jDxqvd_ZmUCWFcqc-2ywuRZ-vy84UjL_LPj9rqunVChLF4-_ZD7KsLd2EhC2GZEeONFNH1Uy9T-TGmPXGhRnv2ZWuan8p_hREgGtgzEt-nAK6g", "width": 2880}], "place_id": "ChIJGVh7cKGgmkcRlS5YHY80VuQ", "plus_code": {"compound_code": "9HM2+36 Z\u00fcrich, Switzerland", "global_code": "8FVC9HM2+36"}, "rating": 3.5, "reference": "ChIJGVh7cKGgmkcRlS5YHY80VuQ", "scope": "GOOGLE", "types": ["meal_delivery", "meal_takeaway", "restaurant", "food", "point_of_interest", "establishment"], "user_ratings_total": 30, "vicinity": "Landoltstrasse 7, Z\u00fcrich"}, {"geometry": {"location": {"lat": 47.3791667, "lng": 8.5555556}, "viewport": {"northeast": {"lat": 47.3805876802915, "lng": 8.556994530291501}, "southwest": {"lat": 47.3778897197085, "lng": 8.554296569708498}}}, "icon": "https://maps.gstatic.com/mapfiles/place_api/icons/restaurant-71.png", "id": "10f99526ad1fb999503b57f8dd927b2d04c346a6", "name": "Okay Italia", "opening_hours": {"open_now": false}, "photos": [{"height": 2988, "html_attributions": ["<a href=\"https://maps.google.com/maps/contrib/115233490363354570813\">Sven W. Eisenhart</a>"], "photo_reference": "CmRaAAAABiQwzf21LbB2xTIzA-JjUI1JisHNbdXEbU5s_-UQ8kC6Lbk7VwEjFTA7wH9vaw544u3vAh8OryjEwxiOtBSj3TvlxWKoNBSbhurrB5ahsihvMYudQONiuZko8coFgVXyEhBhSOUHqTCmWdnAqjc9cKfpGhQK_oFr_22IOFJN90M2WJppDe2rEA", "width": 5312}], "place_id": "ChIJF-gtuKSgmkcRCCB8Jx-7tlE", "plus_code": {"compound_code": "9HH4+M6 Z\u00fcrich, Switzerland", "global_code": "8FVC9HH4+M6"}, "price_level": 2, "rating": 4, "reference": "ChIJF-gtuKSgmkcRCCB8Jx-7tlE", "scope": "GOOGLE", "types": ["restaurant", "food", "point_of_interest", "establishment"], "user_ratings_total": 112, "vicinity": "Gladbachstrasse 94, Z\u00fcrich"}, {"geometry": {"location": {"lat": 47.3882559, "lng": 8.553421799999999}, "viewport": {"northeast": {"lat": 47.3895391302915, "lng": 8.5546110302915}, "southwest": {"lat": 47.3868411697085, "lng": 8.551913069708496}}}, "icon": "https://maps.gstatic.com/mapfiles/place_api/icons/lodging-71.png", "id": "ceed310797195197efa771803f715d9edfe0acdc", "name": "Sorell Hotel Rigiblick", "photos": [{"height": 1984, "html_attributions": ["<a href=\"https://maps.google.com/maps/contrib/115550640130008814843\">Sorell Hotel Rigiblick</a>"], "photo_reference": "CmRZAAAABlFoM3E8ezL1SHYPdOrRYQNMI4GIjxRB53w0ITrw_5upFJ06_PeGMFdnGhOnLE2Ex08Ss52vhygnpfkV_qoj3hyMk-S5vMPAZazoi1N85mPLlPclPC-r6BNFiDZvY7-FEhBr8bNAPi9wJspzSd1vhA8-GhQCj1YK8bE52ITsXUe8WXxdcIrG_A", "width": 2280}], "place_id": "ChIJ9QT1KZmgmkcRHtgBzHAQ-Q4", "plus_code": {"compound_code": "9HQ3+89 Z\u00fcrich, Switzerland", "global_code": "8FVC9HQ3+89"}, "rating": 4.4, "reference": "ChIJ9QT1KZmgmkcRHtgBzHAQ-Q4", "scope": "GOOGLE", "types": ["lodging", "restaurant", "food", "point_of_interest", "establishment"], "user_ratings_total": 54, "vicinity": "Germaniastrasse 99, Z\u00fcrich"}, {"geometry": {"location": {"lat": 47.388277, "lng": 8.553446999999998}, "viewport": {"northeast": {"lat": 47.38955363029149, "lng": 8.554620130291502}, "southwest": {"lat": 47.3868556697085, "lng": 8.551922169708497}}}, "icon": "https://maps.gstatic.com/mapfiles/place_api/icons/restaurant-71.png", "id": "cabdb9fb41795cd0237cf69e3355ff10ac8dcec0", "name": "Bistro", "photos": [{"height": 350, "html_attributions": ["<a href=\"https://maps.google.com/maps/contrib/104653999332641068703\">Bistro im Restaurant Rigiblick</a>"], "photo_reference": "CmRaAAAARrWMx1lq99Vk9hVMLBEBNucgYsAU6doUHVqQKBCAi5K3JOrurT1gYkTcNdHMnPoLEGWRoRX2Zx7zzDpTkqVvTrtfANmP5r8nOYkXZk1XLwuyFqGmb1tG3gRTndB9P4ffEhBuMxlMAqMJJm_T613tzgSNGhQddHfAffIzb_33c04fm7vi9swr1A", "width": 950}], "place_id": "ChIJs0y7LpmgmkcRCW5_diTcM1E", "plus_code": {"compound_code": "9HQ3+89 Z\u00fcrich, Switzerland", "global_code": "8FVC9HQ3+89"}, "rating": 4.3, "reference": "ChIJs0y7LpmgmkcRCW5_diTcM1E", "scope": "GOOGLE", "types": ["restaurant", "food", "point_of_interest", "establishment"], "user_ratings_total": 50, "vicinity": "Germaniastrasse 99, Z\u00fcrich"}, {"geometry": {"location": {"lat": 47.3850202, "lng": 8.548657}, "viewport": {"northeast": {"lat": 47.38637793029149, "lng": 8.549887330291503}, "southwest": {"lat": 47.3836799697085, "lng": 8.547189369708498}}}, "icon": "https://maps.gstatic.com/mapfiles/place_api/icons/restaurant-71.png", "id": "62e68320c2dbf46e1cf49a97ceb33604afefda9d", "name": "Monte Rigi", "opening_hours": {"open_now": false}, "place_id": "ChIJ42ZNpKagmkcR3DwLxJgsBYY", "plus_code": {"compound_code": "9GPX+2F Z\u00fcrich, Switzerland", "global_code": "8FVC9GPX+2F"}, "rating": 4.1, "reference": "ChIJ42ZNpKagmkcR3DwLxJgsBYY", "scope": "GOOGLE", "types": ["restaurant", "food", "point_of_interest", "establishment"], "user_ratings_total": 20, "vicinity": "Universit\u00e4tsstrasse 110, Z\u00fcrich"}, {"geometry": {"location": {"lat": 47.38488470000001, "lng": 8.548571299999999}, "viewport": {"northeast": {"lat": 47.3860755302915, "lng": 8.5498032302915}, "southwest": {"lat": 47.38337756970851, "lng": 8.547105269708497}}}, "icon": "https://maps.gstatic.com/mapfiles/place_api/icons/restaurant-71.png", "id": "9f5c7ca2843dc01c07ce69a4a43298d6ad7270fd", "name": "Zawan", "opening_hours": {"open_now": false}, "photos": [{"height": 3018, "html_attributions": ["<a href=\"https://maps.google.com/maps/contrib/106278214739378685231\">Zawan</a>"], "photo_reference": "CmRaAAAAaziEbQhcQ6aR47lHp4Pcgi8X3JBChM4sIjNZICiHOwjxY8cmdS5bW3SNgiYokgK84xxm1_eW53Um1ohkUU_QXf8recq9IY8W1_qooDIHNuWrBNRXr8zK0CTmRNQprPPdEhBLYLNoRbfynXoxG-SV14MKGhSxvMIUSSFD6jBhsNl5Rn0dPVfVtg", "width": 3018}], "place_id": "ChIJb7l1AqChmkcRlX2_qpWxAA8", "plus_code": {"compound_code": "9GMX+XC Z\u00fcrich, Switzerland", "global_code": "8FVC9GMX+XC"}, "rating": 4.4, "reference": "ChIJb7l1AqChmkcRlX2_qpWxAA8", "scope": "GOOGLE", "types": ["restaurant", "food", "point_of_interest", "establishment"], "user_ratings_total": 99, "vicinity": "Rigiplatz 1, Z\u00fcrich"}, {"geometry": {"location": {"lat": 47.3839667, "lng": 8.548056599999999}, "viewport": {"northeast": {"lat": 47.3853099802915, "lng": 8.549509830291502}, "southwest": {"lat": 47.3826120197085, "lng": 8.546811869708499}}}, "icon": "https://maps.gstatic.com/mapfiles/place_api/icons/restaurant-71.png", "id": "441cf7e2695c81b3e26b0dd8c0a9bb8e3157d682", "name": "Restaurant Rigihof", "opening_hours": {"open_now": false}, "place_id": "ChIJMVYlUKCgmkcR0JSMOF0BHzM", "plus_code": {"compound_code": "9GMX+H6 Z\u00fcrich, Switzerland", "global_code": "8FVC9GMX+H6"}, "rating": 4.5, "reference": "ChIJMVYlUKCgmkcR0JSMOF0BHzM", "scope": "GOOGLE", "types": ["restaurant", "food", "point_of_interest", "establishment"], "user_ratings_total": 2, "vicinity": "Universit\u00e4tstrasse 101, Z\u00fcrich"}, {"geometry": {"location": {"lat": 47.3815938, "lng": 8.548347200000002}, "viewport": {"northeast": {"lat": 47.3829431302915, "lng": 8.549608080291502}, "southwest": {"lat": 47.3802451697085, "lng": 8.546910119708498}}}, "icon": "https://maps.gstatic.com/mapfiles/place_api/icons/restaurant-71.png", "id": "9e48dda2cf16d1553d00ffdcd0dc6df0af61b48d", "name": "Restaurant Rubina", "opening_hours": {"open_now": false}, "photos": [{"height": 2976, "html_attributions": ["<a href=\"https://maps.google.com/maps/contrib/112071392583503107787\">Dalibor Michael Ruzic Anderegg</a>"], "photo_reference": "CmRaAAAAOYfGSVM-AERmDq8mpmiIh8L5xLAyp6dfOeroRWECeReiSy2HBb_GIkudVgZhJ291iDC5UCeGoHBDuXsGxAQCm4tJ5ygvqqbgThgVjXY6FsfZJHJlXxw0j1On4SmOyCtiEhC-xrBfCQWObvXDACIECReCGhSLoat6gkrKHj-SezK8Oge7qUcCZg", "width": 2976}], "place_id": "ChIJUz4CJqGgmkcRJPathEIq_JY", "plus_code": {"compound_code": "9GJX+J8 Z\u00fcrich, Switzerland", "global_code": "8FVC9GJX+J8"}, "price_level": 2, "rating": 4.3, "reference": "ChIJUz4CJqGgmkcRJPathEIq_JY", "scope": "GOOGLE", "types": ["restaurant", "food", "point_of_interest", "establishment"], "user_ratings_total": 88, "vicinity": "Universit\u00e4tstrasse 56, Z\u00fcrich"}, {"geometry": {"location": {"lat": 47.38500739999999, "lng": 8.548244199999997}, "viewport": {"northeast": {"lat": 47.38635018029149, "lng": 8.5496774802915}, "southwest": {"lat": 47.3836522197085, "lng": 8.546979519708495}}}, "icon": "https://maps.gstatic.com/mapfiles/place_api/icons/restaurant-71.png", "id": "9377e00f1b49a3935cbe1c87e2baebc8701e18c3", "name": "Zum Alten L\u00f6wen", "opening_hours": {"open_now": false}, "photos": [{"height": 1200, "html_attributions": ["<a href=\"https://maps.google.com/maps/contrib/102105845801985224176\">Zum Alten L\u00f6wen</a>"], "photo_reference": "CmRaAAAAHiq94NF6R7RfWa9CkRaXeIP-DGs9Off9WiTR0hGgh4dlmXRypVz4FW0KP4l6PAw_KkmuanfuyASSAPWL6YR0YJvfbGfMWRNlaGIk8McOmUO_isr81GMVdhu-IUl6sNtNEhDD6zKaQstSxeFFdHDOoVdbGhRJNS8gE6mZou358bZacyIJjssn0w", "width": 1800}], "place_id": "ChIJJ5GeMKCgmkcRbLvoy2R_iYU", "plus_code": {"compound_code": "9GPX+27 Z\u00fcrich, Switzerland", "global_code": "8FVC9GPX+27"}, "price_level": 2, "rating": 4.6, "reference": "ChIJJ5GeMKCgmkcRbLvoy2R_iYU", "scope": "GOOGLE", "types": ["restaurant", "food", "point_of_interest", "establishment"], "user_ratings_total": 351, "vicinity": "Universit\u00e4tstrasse 111, Z\u00fcrich"}, {"geometry": {"location": {"lat": 47.3859012, "lng": 8.5486925}, "viewport": {"northeast": {"lat": 47.38723238029149, "lng": 8.549960180291503}, "southwest": {"lat": 47.38453441970849, "lng": 8.547262219708498}}}, "icon": "https://maps.gstatic.com/mapfiles/place_api/icons/restaurant-71.png", "id": "de2d6e90234f2fba50096e57444f9f7cb999541e", "name": "Migros Take Away", "opening_hours": {"open_now": false}, "place_id": "ChIJrVE-hJ-gmkcRpg2TbFxvL68", "plus_code": {"compound_code": "9GPX+9F Z\u00fcrich, Switzerland", "global_code": "8FVC9GPX+9F"}, "rating": 3.7, "reference": "ChIJrVE-hJ-gmkcRpg2TbFxvL68", "scope": "GOOGLE", "types": ["meal_takeaway", "bakery", "restaurant", "food", "point_of_interest", "store", "establishment"], "user_ratings_total": 6, "vicinity": "Winterthurerstrasse 2, Z\u00fcrich"}, {"geometry": {"location": {"lat": 47.3860277, "lng": 8.548663900000001}, "viewport": {"northeast": {"lat": 47.3873500302915, "lng": 8.549917180291503}, "southwest": {"lat": 47.3846520697085, "lng": 8.547219219708499}}}, "icon": "https://maps.gstatic.com/mapfiles/place_api/icons/shopping-71.png", "id": "d150054b55c34feaf554f62e0acb1a1bd0862d3d", "name": "k kiosk", "opening_hours": {"open_now": false}, "photos": [{"height": 3024, "html_attributions": ["<a href=\"https://maps.google.com/maps/contrib/106450589851489892853\">Franz Remigius Nescher</a>"], "photo_reference": "CmRaAAAAiBnRenoAaB5pE_eL_BSu4EKEGRiY5WPfNwniWkuP7FYClJ_J_Hyk9-_BcCZZr36-TBbX51KM647IYZIyyUgnqZoAhJgr5Bf77bie-F-VFEi-7Li9UYaABgX0yLavkYjLEhAONF_wm6I-nirNzuhOaXLdGhQI58un8g_JwmLMsN-rCS9Dl52-jQ", "width": 4032}], "place_id": "ChIJM_09lTShmkcRt1xP6kIEMxE", "plus_code": {"compound_code": "9GPX+CF Z\u00fcrich, Switzerland", "global_code": "8FVC9GPX+CF"}, "rating": 2, "reference": "ChIJM_09lTShmkcRt1xP6kIEMxE", "scope": "GOOGLE", "types": ["convenience_store", "liquor_store", "restaurant", "food", "point_of_interest", "store", "establishment"], "user_ratings_total": 3, "vicinity": "Winterthurerstrasse 2, Z\u00fcrich"}, {"geometry": {"location": {"lat": 47.38062679999999, "lng": 8.548333999999999}, "viewport": {"northeast": {"lat": 47.3819769802915, "lng": 8.549593480291502}, "southwest": {"lat": 47.3792790197085, "lng": 8.546895519708498}}}, "icon": "https://maps.gstatic.com/mapfiles/place_api/icons/restaurant-71.png", "id": "53b78d6680cf34db20c5203644e8b55c540f0d5f", "name": "Al Forno", "opening_hours": {"open_now": false}, "photos": [{"height": 4032, "html_attributions": ["<a href=\"https://maps.google.com/maps/contrib/100558627756940465928\">A. Isenring</a>"], "photo_reference": "CmRaAAAAaWsgLtoOYkHbVHHb1rD9DNP9KX2ZWSkgCI2EEBqDbFvwyekw8xQ0Phqt2Neb9hz81fGooa4ujWxz_CNUGz7a0zk7pP45kqTemNMEFS4gjFaBZCOy1Mn6NHg84piCbyubEhAPpJ-hCFyw4ANtGQhR7XJ_GhR-PUsrLuogONuuTo9BxAk62ozZqQ", "width": 3024}], "place_id": "ChIJwxmP0aagmkcRuwANkhWVvRY", "plus_code": {"compound_code": "9GJX+78 Z\u00fcrich, Switzerland", "global_code": "8FVC9GJX+78"}, "price_level": 2, "rating": 4.5, "reference": "ChIJwxmP0aagmkcRuwANkhWVvRY", "scope": "GOOGLE", "types": ["restaurant", "food", "point_of_interest", "establishment"], "user_ratings_total": 202, "vicinity": "Universit\u00e4tstrasse 40, Z\u00fcrich"}, {"geometry": {"location": {"lat": 47.3822279, "lng": 8.5474006}, "viewport": {"northeast": {"lat": 47.3835072802915, "lng": 8.548849080291502}, "southwest": {"lat": 47.3808093197085, "lng": 8.546151119708497}}}, "icon": "https://maps.gstatic.com/mapfiles/place_api/icons/restaurant-71.png", "id": "5d99b7c798a45aba5eac7fd2f2497c888d852696", "name": "Stapferstube da Rizzo", "opening_hours": {"open_now": false}, "photos": [{"height": 3024, "html_attributions": ["<a href=\"https://maps.google.com/maps/contrib/109560683898874003504\">Stapferstube da Rizzo</a>"], "photo_reference": "CmRaAAAAHyDWqqaRTR3ckwp4S5IaOHVD4AJNFE4b-Pmp4ehDNZnOcU1lDGmBgFHwqz-DReG8Xpop175KMhMhFy2R8TOJiVmr9MO5gL9Zj2sZ4otRvhKSZwGLQCLJ4mIj5SSF5vRLEhASXk9_IS5tKxUZ2ajlhjpxGhReBGyNTaZIuGompCKv24D051oN9A", "width": 4032}], "place_id": "ChIJu7X956CgmkcRCa4LGd0bo8o", "plus_code": {"compound_code": "9GJW+VX Z\u00fcrich, Switzerland", "global_code": "8FVC9GJW+VX"}, "rating": 4.5, "reference": "ChIJu7X956CgmkcRCa4LGd0bo8o", "scope": "GOOGLE", "types": ["restaurant", "food", "point_of_interest", "establishment"], "user_ratings_total": 158, "vicinity": "Culmannstrasse 45, Z\u00fcrich"}, {"geometry": {"location": {"lat": 47.3805449, "lng": 8.5479867}, "viewport": {"northeast": {"lat": 47.3818954802915, "lng": 8.549420480291502}, "southwest": {"lat": 47.3791975197085, "lng": 8.546722519708498}}}, "icon": "https://maps.gstatic.com/mapfiles/place_api/icons/restaurant-71.png", "id": "a51465665d4f154af2e552e01d9c6bc0c7464aff", "name": "Uni-Point", "opening_hours": {"open_now": false}, "photos": [{"height": 3024, "html_attributions": ["<a href=\"https://maps.google.com/maps/contrib/106348822134858360016\">Johannes Rummel</a>"], "photo_reference": "CmRaAAAAZ45n-GT9Lxzbv6MfqZBlCTrlSHw_BwkSRlrexjJUpaFQMbWDH49a1mn5XZ5Ky_Hct7Qh7JpeHFLNlidTBku6OLyLPG-y6dLGQQDZGs3M-_vdWRlF-j3QV4_OC4jdJ6FBEhCe9lGmbYXsOIi6U22K9jKIGhTi9TYH7EhCVCgFPNmBdTqx8vz1aQ", "width": 4032}], "place_id": "ChIJz9fW0KagmkcR0bqDf7c12oI", "plus_code": {"compound_code": "9GJX+65 Z\u00fcrich, Switzerland", "global_code": "8FVC9GJX+65"}, "price_level": 1, "rating": 3.8, "reference": "ChIJz9fW0KagmkcR0bqDf7c12oI", "scope": "GOOGLE", "types": ["meal_takeaway", "restaurant", "food", "point_of_interest", "store", "establishment"], "user_ratings_total": 90, "vicinity": "Universit\u00e4tstrasse 43, Z\u00fcrich"}, {"geometry": {"location": {"lat": 47.3774254, "lng": 8.552825599999998}, "viewport": {"northeast": {"lat": 47.3786375302915, "lng": 8.554266480291503}, "southwest": {"lat": 47.3759395697085, "lng": 8.551568519708498}}}, "icon": "https://maps.gstatic.com/mapfiles/place_api/icons/restaurant-71.png", "id": "103de1c7ca4a80735e4d07b293e54c625d58ddb1", "name": "Foodtrailer ETZ", "opening_hours": {"open_now": false}, "place_id": "ChIJO_2Ep6WgmkcR1LFZ7lrBeUs", "plus_code": {"compound_code": "9HG3+X4 Z\u00fcrich, Switzerland", "global_code": "8FVC9HG3+X4"}, "rating": 4.4, "reference": "ChIJO_2Ep6WgmkcR1LFZ7lrBeUs", "scope": "GOOGLE", "types": ["restaurant", "food", "point_of_interest", "establishment"], "user_ratings_total": 19, "vicinity": "Gloriastrasse 35, Z\u00fcrich"}, {"geometry": {"location": {"lat": 47.3796409, "lng": 8.5479095}, "viewport": {"northeast": {"lat": 47.3809897302915, "lng": 8.549377980291503}, "southwest": {"lat": 47.3782917697085, "lng": 8.546680019708498}}}, "icon": "https://maps.gstatic.com/mapfiles/place_api/icons/restaurant-71.png", "id": "298d04d87f299d265702bf02244752e227f8d219", "name": "The Lemon Grass Thai Take Away & Catering", "opening_hours": {"open_now": false}, "place_id": "ChIJQeOb6i-hmkcRTJYkxxYs9MU", "plus_code": {"compound_code": "9GHX+V5 Z\u00fcrich, Switzerland", "global_code": "8FVC9GHX+V5"}, "rating": 3.8, "reference": "ChIJQeOb6i-hmkcRTJYkxxYs9MU", "scope": "GOOGLE", "types": ["restaurant", "food", "point_of_interest", "establishment"], "user_ratings_total": 4, "vicinity": "Universit\u00e4tstrasse 31, Z\u00fcrich"}, {"geometry": {"location": {"lat": 47.3805388, "lng": 8.547198199999999}, "viewport": {"northeast": {"lat": 47.3818801802915, "lng": 8.5486221302915}, "southwest": {"lat": 47.3791822197085, "lng": 8.545924169708497}}}, "icon": "https://maps.gstatic.com/mapfiles/place_api/icons/restaurant-71.png", "id": "d54ac3321fee0a3ccf371cf13c98297b77fee261", "name": "\u82cf\u9ece\u4e16\u7af9\u56ed\u9152\u5bb6", "place_id": "ChIJc3LZLqegmkcRqkpHvC7cxZ0", "plus_code": {"compound_code": "9GJW+6V Z\u00fcrich, Switzerland", "global_code": "8FVC9GJW+6V"}, "rating": 4.3, "reference": "ChIJc3LZLqegmkcRqkpHvC7cxZ0", "scope": "GOOGLE", "types": ["restaurant", "food", "point_of_interest", "establishment"], "user_ratings_total": 4, "vicinity": "Culmannstrasse 19, Z\u00fcrich"}], "status": "OK"}