{"html_attributions": [], "next_page_token": "CqQCIAEAADCZZ5ZN7fNvKmFC_uFujxH0Oxbg2i-5mji6q3D9jlkbDJBUj772pIkJ8CgkBrFPYlerpeQRRHzjmpinUFfU0lpBzkf89jip5GS4C33wul19vRWr7nOxaFlmz7vyzQANN903iguPj386lLc9hwV8B8oatY_Azk3tP5V9fRZDe5C0m3NFE2j4RpzgNSkJTV_F3gtnRGqqiAQ2erQP9vlcjA6ojubVLaf6d-6ylX6JRbUXZY_o3qLPVm8oOmVSuYQO2VZ7lT3qC192Dy8NksL43kmkeOd2NbOnczVwdlPpK3clQk_b188NOU6pi2HhbTmV72mGkktKyYMXkyOrggnjupdzzZ-Eb8BRqt42qbTibr6EhVtl7MXrFdRncqo18SW5AxIQpIDZ17m8C2Aw0xRcpEsvzxoUkmFkjnSLjX_LdP58PPSUboOZlS4", "results": [{"geometry": {"location": {"lat": 47.3633259, "lng": 8.5174305}, "viewport": {"northeast": {"lat": 47.3646433302915, "lng": 8.518697980291503}, "southwest": {"lat": 47.3619453697085, "lng": 8.516000019708498}}}, "icon": "https://maps.gstatic.com/mapfiles/place_api/icons/restaurant-71.png", "id": "19680c177d6d5daa072e0b56522600b0f7e8fc81", "name": "Zapote - Californian Burritos & Salads", "opening_hours": {"open_now": false}, "photos": [{"height": 3840, "html_attributions": ["<a href=\"https://maps.google.com/maps/contrib/116043788330351972006\">Rainer Weidenhaupt</a>"], "photo_reference": "CmRaAAAAuwXfA4Gh7Y0h3DvzXG27QSff28YJehYiDLU9HK3FVdcMDEcLJ3zZSa-SiK_mhAHqNEL7lbg842lD_UpX8EmK4J_tg92U7EdSDFla2DqEPPx1uKZhvmliaIqo3daxrcsdEhABFfps1WhGBhkibvbNctw9GhT_kF5PEYC52mLNgJymLiXudxqOug", "width": 2160}], "place_id": "ChIJKQHZfPMJkEcRL8THxA8WVLQ", "plus_code": {"compound_code": "9G78+8X Z\u00fcrich, Switzerland", "global_code": "8FVC9G78+8X"}, "price_level": 2, "rating": 4.4, "reference": "ChIJKQHZfPMJkEcRL8THxA8WVLQ", "scope": "GOOGLE", "types": ["restaurant", "food", "point_of_interest", "establishment"], "user_ratings_total": 175, "vicinity": "Binzallee 4, Z\u00fcrich"}, {"geometry": {"location": {"lat": 47.3619499, "lng": 8.5165908}, "viewport": {"northeast": {"lat": 47.3632372802915, "lng": 8.517942380291501}, "southwest": {"lat": 47.3605393197085, "lng": 8.515244419708496}}}, "icon": "https://maps.gstatic.com/mapfiles/place_api/icons/restaurant-71.png", "id": "7944e11fea9cb4675a636a18c224e71db59f91c8", "name": "Da Michele", "opening_hours": {"open_now": false}, "photos": [{"height": 4000, "html_attributions": ["<a href=\"https://maps.google.com/maps/contrib/101079672912110662462\">J\u00fcrg Stuker</a>"], "photo_reference": "CmRaAAAAx-W2GCVEi5L0bdjAm37D0pKLjSkh0rgNylmtXa_24QH7g1xGtGxUjx7KPUSI1T4wWr6B8Cc4vsMRovdu3u621DFzs1MrRabVbJXAK3CfTrfgs2QgnTZh66hleCH4Pu-sEhAocHTUZGYlc7ZR6zcswkdjGhR67RnHvFhpyTQ_px-G0JTbuqrO_A", "width": 6000}], "place_id": "ChIJfxpAAPMJkEcRp3JbCxKue_g", "plus_code": {"compound_code": "9G68+QJ Z\u00fcrich, Switzerland", "global_code": "8FVC9G68+QJ"}, "price_level": 2, "rating": 4.6, "reference": "ChIJfxpAAPMJkEcRp3JbCxKue_g", "scope": "GOOGLE", "types": ["restaurant", "food", "point_of_interest", "establishment"], "user_ratings_total": 168, "vicinity": "Grubenstrasse 12, Z\u00fcrich"}, {"geometry": {"location": {"lat": 47.3617427, "lng": 8.516422500000001}, "viewport": {"northeast": {"lat": 47.3631289302915, "lng": 8.517763780291503}, "southwest": {"lat": 47.3604309697085, "lng": 8.515065819708498}}}, "icon": "https://maps.gstatic.com/mapfiles/place_api/icons/restaurant-71.png", "id": "fd546eac4b9e1be5e23401fcf9536cf2d28702f0", "name": "LaZoupa", "opening_hours": {"open_now": false}, "place_id": "ChIJD1U-GvMJkEcRtSDahm1fQhg", "plus_code": {"compound_code": "9G68+MH Z\u00fcrich, Switzerland", "global_code": "8FVC9G68+MH"}, "rating": 3.7, "reference": "ChIJD1U-GvMJkEcRtSDahm1fQhg", "scope": "GOOGLE", "types": ["meal_takeaway", "restaurant", "food", "point_of_interest", "establishment"], "user_ratings_total": 3, "vicinity": "Grubenstrasse 9, Z\u00fcrich"}, {"geometry": {"location": {"lat": 47.3626562, "lng": 8.518675000000002}, "viewport": {"northeast": {"lat": 47.36395818029149, "lng": 8.520104330291504}, "southwest": {"lat": 47.36126021970849, "lng": 8.5174063697085}}}, "icon": "https://maps.gstatic.com/mapfiles/place_api/icons/shopping-71.png", "id": "e59e2bfe9567f5ca1ac30846655f4fa2f8d9edda", "name": "k kiosk", "opening_hours": {"open_now": false}, "photos": [{"height": 4032, "html_attributions": ["<a href=\"https://maps.google.com/maps/contrib/109456292964978827995\">Patrick Hediger</a>"], "photo_reference": "CmRaAAAAQws8T1Atfna5QMVgm7hDtvqo_XCYyX94mkui5F4PgcSydS-mIhRqHkizpd8_EP_4IyzHrwcRW9byO2BUmbUficSZ8RJVuOvdzx0o6nuaxHd3gMGIHcsdsfFdMPH1XRC5EhDtQmG2eDxPE0aKy53pd1L7GhQeHODKgQvEfWFjWzGYe2dFbp34tw", "width": 3024}], "place_id": "ChIJlamDmvMJkEcRwCnHK7XFZ40", "plus_code": {"compound_code": "9G79+3F Z\u00fcrich, Switzerland", "global_code": "8FVC9G79+3F"}, "rating": 3.3, "reference": "ChIJlamDmvMJkEcRwCnHK7XFZ40", "scope": "GOOGLE", "types": ["convenience_store", "liquor_store", "restaurant", "food", "point_of_interest", "store", "establishment"], "user_ratings_total": 3, "vicinity": "Uetlibergstrasse 70, Z\u00fcrich"}, {"geometry": {"location": {"lat": 47.3640179, "lng": 8.514569900000001}, "viewport": {"northeast": {"lat": 47.3654356802915, "lng": 8.516446930291503}, "southwest": {"lat": 47.3627377197085, "lng": 8.513748969708498}}}, "icon": "https://maps.gstatic.com/mapfiles/place_api/icons/restaurant-71.png", "id": "e203ef3c21572b41c01e42271b526ed72d04e49d", "name": "Zampano", "photos": [{"height": 2736, "html_attributions": ["<a href=\"https://maps.google.com/maps/contrib/113141434606398339583\">Ashish Shah</a>"], "photo_reference": "CmRaAAAACN6uZG8kO0T5OcopZT1Gp5FRmWxTDUDaZl2Z6zDTaGZ3Rvlthk0t8pfMDVPDw602kZ4S8dsDiHO5oL_MuhyOmO85ml-IC8R4YRabf0L8wtCDITaWW1P2VqK7lsWlamArEhDZYAPNGGz6B47B30JSH-gSGhRv-wthOHPwzenpZ2j6m19Ry1vstw", "width": 3648}], "place_id": "ChIJA9KGI6UJkEcRzxTMrXjK-no", "plus_code": {"compound_code": "9G77+JR Z\u00fcrich, Switzerland", "global_code": "8FVC9G77+JR"}, "rating": 4.4, "reference": "ChIJA9KGI6UJkEcRzxTMrXjK-no", "scope": "GOOGLE", "types": ["restaurant", "food", "point_of_interest", "establishment"], "user_ratings_total": 9, "vicinity": "Talwiesenstrasse 17, Z\u00fcrich"}, {"geometry": {"location": {"lat": 47.3624093, "lng": 8.5188717}, "viewport": {"northeast": {"lat": 47.3637926302915, "lng": 8.520153430291503}, "southwest": {"lat": 47.3610946697085, "lng": 8.517455469708498}}}, "icon": "https://maps.gstatic.com/mapfiles/place_api/icons/restaurant-71.png", "id": "d25ff23655ef8191bd96544e4cbd2bd362047b01", "name": "Walter Buchmann \u00abBinz\u00bb", "opening_hours": {"open_now": false}, "photos": [{"height": 801, "html_attributions": ["<a href=\"https://maps.google.com/maps/contrib/117900527024405150382\">Walter Buchmann \u00abBinz\u00bb</a>"], "photo_reference": "CmRaAAAAKuCPXGCQhmSKddMd9nHFZpxTqUC94HZ4qHHiBP3_kjhR_w-ps2OoKrzqMIAMXfVzr4TaKY-FNhY-uIXLwnYuBx0txSseSXul1DKuBe1vCua2Q9yArmtAWYD06Prxo7g3EhAAZl9VCrkFl1L8lIlK-zu9GhRdZlqH2k5rmPnKF1wqcKUWOLH_pg", "width": 1199}], "place_id": "ChIJy9PRlvMJkEcRic-il3Lc_2o", "plus_code": {"compound_code": "9G69+XG Z\u00fcrich, Switzerland", "global_code": "8FVC9G69+XG"}, "price_level": 2, "rating": 4.3, "reference": "ChIJy9PRlvMJkEcRic-il3Lc_2o", "scope": "GOOGLE", "types": ["bakery", "meal_takeaway", "cafe", "restaurant", "food", "point_of_interest", "store", "establishment"], "user_ratings_total": 204, "vicinity": "Uetlibergstrasse 65, Z\u00fcrich"}, {"geometry": {"location": {"lat": 47.3626328, "lng": 8.5191097}, "viewport": {"northeast": {"lat": 47.3640287802915, "lng": 8.520497480291503}, "southwest": {"lat": 47.36133081970851, "lng": 8.517799519708499}}}, "icon": "https://maps.gstatic.com/mapfiles/place_api/icons/restaurant-71.png", "id": "743a407480c3be4972d83699d74f4cdc2a544605", "name": "Mezzo", "opening_hours": {"open_now": false}, "photos": [{"height": 3024, "html_attributions": ["<a href=\"https://maps.google.com/maps/contrib/101663858170805496915\">Michel Latch</a>"], "photo_reference": "CmRaAAAAeXj6AEF0goHe6mCk9DrQerIOI7zM8GFe2Htg5sMCmLMuz5FrxUhqKtpTkCcD5OTFbgcK_w22_uR2euB8O4HLYmAWe37MAb2CNI8HHBY6ElUvj3t7I5nGUYuUBJt6QR9PEhB0bVmKeRAsCMkpDN3FZb3YGhTnvETDERWJB_756W_1PxVQ-WaxAA", "width": 4032}], "place_id": "ChIJy4IRk_MJkEcRpNkRMhEPWJ4", "plus_code": {"compound_code": "9G79+3J Z\u00fcrich, Switzerland", "global_code": "8FVC9G79+3J"}, "price_level": 2, "rating": 4.2, "reference": "ChIJy4IRk_MJkEcRpNkRMhEPWJ4", "scope": "GOOGLE", "types": ["cafe", "bar", "restaurant", "food", "point_of_interest", "establishment"], "user_ratings_total": 274, "vicinity": "Eichstrasse 29, Z\u00fcrich"}, {"geometry": {"location": {"lat": 47.3616016, "lng": 8.5180055}, "viewport": {"northeast": {"lat": 47.36298603029149, "lng": 8.519290830291501}, "southwest": {"lat": 47.3602880697085, "lng": 8.516592869708498}}}, "icon": "https://maps.gstatic.com/mapfiles/place_api/icons/restaurant-71.png", "id": "93514c301c8a88b7d2987b7e6a2375b5a72d0349", "name": "Utoburg", "opening_hours": {"open_now": false}, "photos": [{"height": 1936, "html_attributions": ["<a href=\"https://maps.google.com/maps/contrib/103882910224385253109\">Restaurant Utoburg</a>"], "photo_reference": "CmRaAAAAAvByIKAsehZsEHaeDr584zUC6ZMgV2YgUqIY2XT1-coi6UiRbIbbMHnVV2ILbA2OJAmO3kBgUlE1yAbO_vEGU9c_XsN0pMDXM9yK2MyIU-Gfl4QRcCoDOG-O4jUupBlOEhBHI0TOa4Y2RwPc2pMna-jCGhSSF4g0b2Lk-1Oa2bAmqstwUUaTdA", "width": 2592}], "place_id": "ChIJOaccpvMJkEcRtGjjQrTf12U", "plus_code": {"compound_code": "9G69+J6 Z\u00fcrich, Switzerland", "global_code": "8FVC9G69+J6"}, "rating": 4.6, "reference": "ChIJOaccpvMJkEcRtGjjQrTf12U", "scope": "GOOGLE", "types": ["restaurant", "food", "point_of_interest", "establishment"], "user_ratings_total": 139, "vicinity": "Uetlibergstrasse 101, Z\u00fcrich"}, {"geometry": {"location": {"lat": 47.3615304, "lng": 8.517924599999999}, "viewport": {"northeast": {"lat": 47.36291578029149, "lng": 8.519208280291501}, "southwest": {"lat": 47.3602178197085, "lng": 8.516510319708496}}}, "icon": "https://maps.gstatic.com/mapfiles/place_api/icons/restaurant-71.png", "id": "dfd402397ee9bf39d9b4e47482bbefb20040ba5e", "name": "Payamlino", "opening_hours": {"open_now": false}, "photos": [{"height": 998, "html_attributions": ["<a href=\"https://maps.google.com/maps/contrib/100967102265149292700\">Payamlino Restaurant Take Away</a>"], "photo_reference": "CmRZAAAAlR2EbQvGQ2Ixuhm8J64NphVssTGbF18e-p8Pv5Kg2lf5sYFSRSYqDwlbsnw2OKHttq4kzk09RXcQ13YH-y3ZnD89a3LTld4nH8ahN18kSgbU2CzADYG1Xh7RzeBoLTmwEhBCSOcByChN0svPU4Pqr2y9GhTgPLw3tR-cVKRlXqgWMHPIOIOzzg", "width": 1500}], "place_id": "ChIJJfq3qPMJkEcRJfpxRUjxbEE", "plus_code": {"compound_code": "9G69+J5 Z\u00fcrich, Switzerland", "global_code": "8FVC9G69+J5"}, "price_level": 1, "rating": 4.2, "reference": "ChIJJfq3qPMJkEcRJfpxRUjxbEE", "scope": "GOOGLE", "types": ["restaurant", "food", "point_of_interest", "establishment"], "user_ratings_total": 106, "vicinity": "Uetlibergstrasse 103, Z\u00fcrich"}, {"geometry": {"location": {"lat": 47.36401009999999, "lng": 8.5192061}, "viewport": {"northeast": {"lat": 47.36546128029149, "lng": 8.521062430291503}, "southwest": {"lat": 47.36276331970849, "lng": 8.518364469708498}}}, "icon": "https://maps.gstatic.com/mapfiles/place_api/icons/restaurant-71.png", "id": "aa00755184b149133c31db80fa7b51ac3ffef8e6", "name": "Eurest / Zurich Austrasse", "place_id": "ChIJsXdVSBUJkEcRd6vs103AuEA", "plus_code": {"compound_code": "9G79+JM Z\u00fcrich, Switzerland", "global_code": "8FVC9G79+JM"}, "reference": "ChIJsXdVSBUJkEcRd6vs103AuEA", "scope": "GOOGLE", "types": ["restaurant", "food", "point_of_interest", "establishment"], "vicinity": "Austrasse 46, Z\u00fcrich"}, {"geometry": {"location": {"lat": 47.3614298, "lng": 8.514849200000002}, "viewport": {"northeast": {"lat": 47.3628643302915, "lng": 8.516170980291502}, "southwest": {"lat": 47.3601663697085, "lng": 8.5134730197085}}}, "icon": "https://maps.gstatic.com/mapfiles/place_api/icons/restaurant-71.png", "id": "6f05d00286e723286bd84e045989e6755546eb70", "name": "Smith And De Luma", "photos": [{"height": 1333, "html_attributions": ["<a href=\"https://maps.google.com/maps/contrib/102535715623766057411\">Smith And De Luma</a>"], "photo_reference": "CmRaAAAAmy4DvYmnGgoir985Iqm-iwcjFtZKnK7iBM_hgjTTBELLdnCosL_iiAQY2SRGoBi6S_qH4OW-F4SJy5tUndBxIz4reULz-Q17Rv5qX9mixhR4DGBmU3v_xbsRezABnD1xEhApJhv1X92URiWXqHA_PcQ-GhTOUyUrWnobu1p2ZIZIGgryCf5D7g", "width": 2000}], "place_id": "ChIJJ1wbK_MJkEcRozD-ANNNgE4", "plus_code": {"compound_code": "9G67+HW Z\u00fcrich, Switzerland", "global_code": "8FVC9G67+HW"}, "price_level": 3, "rating": 4.4, "reference": "ChIJJ1wbK_MJkEcRozD-ANNNgE4", "scope": "GOOGLE", "types": ["restaurant", "food", "point_of_interest", "establishment"], "user_ratings_total": 457, "vicinity": "Grubenstrasse 27, Z\u00fcrich"}, {"geometry": {"location": {"lat": 47.3611543, "lng": 8.517485500000001}, "viewport": {"northeast": {"lat": 47.3625352302915, "lng": 8.518770030291503}, "southwest": {"lat": 47.3598372697085, "lng": 8.5160720697085}}}, "icon": "https://maps.gstatic.com/mapfiles/place_api/icons/restaurant-71.png", "id": "5b39ede0fb2fb0eb15196e7d6cb117519c415fd0", "name": "Mirch Masala Restaurent", "opening_hours": {"open_now": false}, "photos": [{"height": 348, "html_attributions": ["<a href=\"https://maps.google.com/maps/contrib/108336088138411700659\">Mirch Masala Restaurent</a>"], "photo_reference": "CmRaAAAAG78GKFj6c07lB7RABNEeZKL2rLgAV3Aq8wiFbAcksTtbO_xoME9l4JFtoNMTKyN69o7DJ_dn1_Gkupy0w5TAkvg33WI7WW9-7P1PYDLLC9UWiQBdP7CYslOLYkh11-JHEhBhVLI4W22KQpU8W_G0e0KtGhRwzgLKxdP1W2aVNEW5tbQ5QOmP8A", "width": 750}], "place_id": "ChIJhxrR53QJkEcRbMSgDdQrSVE", "plus_code": {"compound_code": "9G68+FX Z\u00fcrich, Switzerland", "global_code": "8FVC9G68+FX"}, "rating": 3.8, "reference": "ChIJhxrR53QJkEcRbMSgDdQrSVE", "scope": "GOOGLE", "types": ["restaurant", "food", "point_of_interest", "establishment"], "user_ratings_total": 17, "vicinity": "Uetlibergstrasse 109, Z\u00fcrich"}, {"geometry": {"location": {"lat": 47.3611015, "lng": 8.517403300000002}, "viewport": {"northeast": {"lat": 47.36248038029149, "lng": 8.518696930291503}, "southwest": {"lat": 47.35978241970849, "lng": 8.515998969708498}}}, "icon": "https://maps.gstatic.com/mapfiles/place_api/icons/restaurant-71.png", "id": "31571c1c5fe5234ae3339fcfaeab925d7ee855cc", "name": "Mirch Masala", "opening_hours": {"open_now": false}, "photos": [{"height": 1080, "html_attributions": ["<a href=\"https://maps.google.com/maps/contrib/112255671043377972474\">Niklas Gehlen</a>"], "photo_reference": "CmRaAAAAJty_oiTV21V40n0qYydvjnkjV3Avk1rTSdc_xpi7j9fTtTR1xjE1vwM1KmUiNXXGGp9SKsgOkTy1YHmZd9-i9RtL0LrKgA4AES1wpqMiOvZQsYiDLMU_7DGOvHzxeoJrEhDj1usr602jgevrJ8DEo_TXGhTrus_7RFuerKG4L1m_iWDwoIEI9w", "width": 1920}], "place_id": "ChIJV4R2APMJkEcRLL5trXQNlyI", "plus_code": {"compound_code": "9G68+CX Z\u00fcrich, Switzerland", "global_code": "8FVC9G68+CX"}, "rating": 3.9, "reference": "ChIJV4R2APMJkEcRLL5trXQNlyI", "scope": "GOOGLE", "types": ["restaurant", "food", "point_of_interest", "establishment"], "user_ratings_total": 7, "vicinity": "Uetlibergstrasse 109, Z\u00fcrich"}, {"geometry": {"location": {"lat": 47.3611015, "lng": 8.517403300000002}, "viewport": {"northeast": {"lat": 47.36248038029149, "lng": 8.518696930291503}, "southwest": {"lat": 47.35978241970849, "lng": 8.515998969708498}}}, "icon": "https://maps.gstatic.com/mapfiles/place_api/icons/restaurant-71.png", "id": "5c836e6d84eb8775df41c0e939126229a909d92d", "name": "Taiga", "opening_hours": {"open_now": false}, "photos": [{"height": 3024, "html_attributions": ["<a href=\"https://maps.google.com/maps/contrib/104872440118863494018\">Hussein Saleh</a>"], "photo_reference": "CmRaAAAAAzF1lk81320H3FS0ayQf5GE8YC4TE1FuPj-ECQ66EQVvkN4eCpNMAxnb3u6EjPrU7t5rsz7yrBEy0m6vNVqkz5gMgDra_ulMadvgpcZR13ftBko3iHdSiZ1ST8pa_m38EhAUdx3--WLWGENsADPFn6RAGhQOweWLOgsRIM14HZV5Zkq9mD3bpQ", "width": 4032}], "place_id": "ChIJyd4SAPMJkEcRlxFrMM_UlNQ", "plus_code": {"compound_code": "9G68+CX Z\u00fcrich, Switzerland", "global_code": "8FVC9G68+CX"}, "rating": 3.5, "reference": "ChIJyd4SAPMJkEcRlxFrMM_UlNQ", "scope": "GOOGLE", "types": ["restaurant", "food", "point_of_interest", "establishment"], "user_ratings_total": 21, "vicinity": "Uetlibergstrasse 109, Z\u00fcrich"}, {"geometry": {"location": {"lat": 47.361408, "lng": 8.5146522}, "viewport": {"northeast": {"lat": 47.3628392802915, "lng": 8.515975680291502}, "southwest": {"lat": 47.3601413197085, "lng": 8.5132777197085}}}, "icon": "https://maps.gstatic.com/mapfiles/place_api/icons/restaurant-71.png", "id": "30ea7d5f66c020a4f14db509053cc5d8f4f295fa", "name": "The Hidden Garden Pop-Up", "opening_hours": {"open_now": false}, "photos": [{"height": 640, "html_attributions": ["<a href=\"https://maps.google.com/maps/contrib/103537804972967537128\">The Hidden Garden Pop-Up</a>"], "photo_reference": "CmRaAAAANLUox5bkyr6JWdJcqgwC25xA4cjgBjctUCGkfU2n2IiBSPa4KCCSGFfOIOiXY6-1txwnO0caMa4oUUP0Y9Hl-jI4G-zjEDjxi8y6o8iikBPnBJBeKsEbE8pdQAFYuY_LEhCu8APHQmXhVS_nzxl7p7ciGhTd7v14swK3_pVV6fflUje6hWPIgQ", "width": 1102}], "place_id": "ChIJTfGC4wUJkEcRDC5je7DIH4Q", "plus_code": {"compound_code": "9G67+HV Z\u00fcrich, Switzerland", "global_code": "8FVC9G67+HV"}, "rating": 5, "reference": "ChIJTfGC4wUJkEcRDC5je7DIH4Q", "scope": "GOOGLE", "types": ["restaurant", "food", "point_of_interest", "establishment"], "user_ratings_total": 2, "vicinity": "Grubenstrasse 27, Z\u00fcrich"}, {"geometry": {"location": {"lat": 47.3628928, "lng": 8.513267400000002}, "viewport": {"northeast": {"lat": 47.3643668302915, "lng": 8.514549580291503}, "southwest": {"lat": 47.3616688697085, "lng": 8.511851619708498}}}, "icon": "https://maps.gstatic.com/mapfiles/place_api/icons/bar-71.png", "id": "e76eaf2ca1467d95b90d362c3b094dc6600e848f", "name": "Binz & Kunz", "opening_hours": {"open_now": false}, "photos": [{"height": 3024, "html_attributions": ["<a href=\"https://maps.google.com/maps/contrib/110289169661618827858\">Christopher Webster</a>"], "photo_reference": "CmRaAAAAKduZJgtTgPUEU710d4NCpkJD9L6DmSIJK0kJPeVLHChzhfJopsDejAaMThPzKlo3urDIZEU1WU7JRKPhTAJYQhgBLbZKdCVOh6Yt4FAoZDtgKyizYtECae0aBvYxdaYdEhBv9gNGaAmSK0NM7r2skaWUGhTdZN10fd2ezQkuR0QhVAtQyWQ77A", "width": 4032}], "place_id": "ChIJUbTNpYwJkEcRnbNV5y2tPiQ", "plus_code": {"compound_code": "9G77+58 Z\u00fcrich, Switzerland", "global_code": "8FVC9G77+58"}, "price_level": 2, "rating": 4.3, "reference": "ChIJUbTNpYwJkEcRnbNV5y2tPiQ", "scope": "GOOGLE", "types": ["meal_takeaway", "bar", "restaurant", "food", "point_of_interest", "establishment"], "user_ratings_total": 477, "vicinity": "R\u00e4ffelstrasse 17, Z\u00fcrich"}, {"geometry": {"location": {"lat": 47.3608454, "lng": 8.5177977}, "viewport": {"northeast": {"lat": 47.3623391802915, "lng": 8.518878680291502}, "southwest": {"lat": 47.3596412197085, "lng": 8.516180719708498}}}, "icon": "https://maps.gstatic.com/mapfiles/place_api/icons/restaurant-71.png", "id": "4dbeee0c05b8f7dc9d76db2792f5eb5be7630b7a", "name": "Vietnam Restaurant", "opening_hours": {"open_now": false}, "photos": [{"height": 3280, "html_attributions": ["<a href=\"https://maps.google.com/maps/contrib/112512355118206996089\">Vietnam</a>"], "photo_reference": "CmRaAAAA7C6cXzq4DcoDSonANGOiqA1dCE8khFXyCPkwfZ4ALyEkidn8HMJ3ZCF7lWyrtuRz5zh0yZU6fu5YGZkCYiSn4soCpt0T76lYuqHbE0avRDnk_BNJNd2yqeXec4FAWv3fEhCRy8fhwJAwyOUN9Tq1X1JxGhSYE19EoUXidxRCtC5QiTekmbloyA", "width": 4928}], "place_id": "ChIJexi4l_MJkEcR94gB0zFVXss", "plus_code": {"compound_code": "9G69+84 Z\u00fcrich, Switzerland", "global_code": "8FVC9G69+84"}, "price_level": 2, "rating": 4.4, "reference": "ChIJexi4l_MJkEcR94gB0zFVXss", "scope": "GOOGLE", "types": ["restaurant", "food", "point_of_interest", "establishment"], "user_ratings_total": 376, "vicinity": "Uetlibergstrasse 111b, Z\u00fcrich"}, {"geometry": {"location": {"lat": 47.363547, "lng": 8.520175}, "viewport": {"northeast": {"lat": 47.3648660802915, "lng": 8.521487030291503}, "southwest": {"lat": 47.3621681197085, "lng": 8.518789069708498}}}, "icon": "https://maps.gstatic.com/mapfiles/place_api/icons/generic_business-71.png", "id": "369787f1d9b7b1ae8df36d036c313d98943fdeef", "name": "dieci", "opening_hours": {"open_now": false}, "photos": [{"height": 1920, "html_attributions": ["<a href=\"https://maps.google.com/maps/contrib/104686303862228266805\">dieci</a>"], "photo_reference": "CmRaAAAAg4ewGV76sXMtkUp_2tceOq64FctRABOGWXVDHjsSBjIxnewXJ2yAIr4zdkiRehR7Yqpy4_oBTfpvvc_0K8aJqJbXpmDbceTg_XVRngDQ32ZzhAlPwI8WlmnJZ0s0fDyQEhAzQSQNxMFcaxeoQF62KxgqGhTQ5yyOFWRP78fCb2VV7EnLVrCzyg", "width": 2880}], "place_id": "ChIJDUQ0CfQJkEcRzKkD__HBLhU", "plus_code": {"compound_code": "9G7C+C3 Z\u00fcrich, Switzerland", "global_code": "8FVC9G7C+C3"}, "rating": 4.3, "reference": "ChIJDUQ0CfQJkEcRzKkD__HBLhU", "scope": "GOOGLE", "types": ["meal_delivery", "meal_takeaway", "restaurant", "food", "point_of_interest", "establishment"], "user_ratings_total": 116, "vicinity": "Eibenstrasse 24, Z\u00fcrich"}, {"geometry": {"location": {"lat": 47.36397239999999, "lng": 8.5201403}, "viewport": {"northeast": {"lat": 47.36527373029149, "lng": 8.521574680291502}, "southwest": {"lat": 47.36257576970849, "lng": 8.518876719708498}}}, "icon": "https://maps.gstatic.com/mapfiles/place_api/icons/restaurant-71.png", "id": "55e53dc94fad440d841a77c13f8c0558120f4ef9", "name": "Ploy", "opening_hours": {"open_now": false}, "photos": [{"height": 2432, "html_attributions": ["<a href=\"https://maps.google.com/maps/contrib/117112731220568443161\">Honza B\u00edm</a>"], "photo_reference": "CmRaAAAALP2cjDUagrRmZ_UDlc5irbMCJ7P2rV8zlqOp_E9d3DCPjIqS2TWlrNI9t0fVVudyYeqTttlzQ596duRr3PKU4jpd0-2mO0Iv444EgW7H0jH1rZVgubCSsj8E9H5Q5-lYEhCEuuthBW9AEzyWB4deTOqQGhSronA3CNjw1zyhf4RxJM7_uJA_hg", "width": 3286}], "place_id": "ChIJE1IxEvQJkEcR7xC6i0KaQec", "plus_code": {"compound_code": "9G7C+H3 Z\u00fcrich, Switzerland", "global_code": "8FVC9G7C+H3"}, "price_level": 2, "rating": 4.2, "reference": "ChIJE1IxEvQJkEcR7xC6i0KaQec", "scope": "GOOGLE", "types": ["restaurant", "food", "point_of_interest", "establishment"], "user_ratings_total": 83, "vicinity": "Uetlibergstrasse 38, Z\u00fcrich"}, {"geometry": {"location": {"lat": 47.3632994, "lng": 8.512744199999998}, "viewport": {"northeast": {"lat": 47.3645369802915, "lng": 8.514152730291501}, "southwest": {"lat": 47.3618390197085, "lng": 8.511454769708497}}}, "icon": "https://maps.gstatic.com/mapfiles/place_api/icons/restaurant-71.png", "id": "c0ce595f7abc69ed93f0c69e15bf4d9d873ef151", "name": "Gelateria di Berna (Ape Piaggio)", "opening_hours": {"open_now": false}, "photos": [{"height": 1440, "html_attributions": ["<a href=\"https://maps.google.com/maps/contrib/101873459357378047582\">david amrein</a>"], "photo_reference": "CmRaAAAA0PwsUEcNlTtIwrAXQr8ebMuhlQNnymN4QOTXYZnz7ANmJxtR41RqjVvjwNWvG45VU1UHGTvZpknM96_szelqeqoECMR9PhxigwnHKrJwBKcGTBDWzcwbfrg0RutF0yVWEhC56UIWexwbTpi_fwsJlIxWGhQknGPLazLnn8tf3AgRDTyp_K2iCw", "width": 1920}], "place_id": "ChIJmYXJjggJkEcROIeMW0V6qr4", "plus_code": {"compound_code": "9G77+83 Z\u00fcrich, Switzerland", "global_code": "8FVC9G77+83"}, "reference": "ChIJmYXJjggJkEcROIeMW0V6qr4", "scope": "GOOGLE", "types": ["restaurant", "food", "point_of_interest", "establishment"], "vicinity": "R\u00e4ffelstrasse 22, Z\u00fcrich"}], "status": "OK"}