{"html_attributions": [], "next_page_token": "CqQCIAEAAEN1FLlpu1GrY1xksuY6mcs2Tj3IglAddiz7ZzdlYTsfGnB0RaJiujybLA-2uN978WAzFWsjOqTHa1XJAGMeVPoIBBGEWEVw3YBTHvpj04ogULzLoC35FlJpBLHedPrMHnJoUJwXy2fHSQ-csAsB8AiQ3wAGGDdHnTH5oKT3ldk46D7HCQazwhAXFmKBVkIOGZAhNtA59qgT0hrKghtAY2sKogJYakwXX5-hElsqHH0JQceBkQZCOhcj_Qjn2CsuD8rKLf6v3Bg7jY80lPIKKzpFtAXWjSvwMhjrtltIppAYHvRSzCxLyPSPI6F5sdp_2MKMRmOQSjZHa7_RdGkv17UdEwKw0SQXZw7LPytROtd4MD4yHbh008Z4BteYI1SbnRIQd5uxH5iXGXb9emH9NSCpexoUNMO3Yla4C65XaC09JsU1GKxxOHI", "results": [{"geometry": {"location": {"lat": 47.3702415, "lng": 8.531799}, "viewport": {"northeast": {"lat": 47.37160953029149, "lng": 8.5331233302915}, "southwest": {"lat": 47.3689115697085, "lng": 8.530425369708498}}}, "icon": "https://maps.gstatic.com/mapfiles/place_api/icons/restaurant-71.png", "id": "2a0d5e6b45c2104b34c0f80f280c37a6b4239153", "name": "Antica Roma", "opening_hours": {"open_now": false}, "photos": [{"height": 4349, "html_attributions": ["<a href=\"https://maps.google.com/maps/contrib/115568045159900373607\">monamohn</a>"], "photo_reference": "CmRaAAAAI3GDGlWNjBonJZscRxCu69gWxGHyyvjfalfjukTMNjvjQSBQNJB4sc0wlZzZkOW-dnYKe7rA0VHXwAnwDfTS27gOUtpFeVvE2o64xi7XlN432hQNGSnXrVfK1CULAIHpEhAJehuxWXYjXHtaYsvuocGZGhSlNAFo0JzWCoLEmS_a2HDEjU-5RQ", "width": 6811}], "place_id": "ChIJj6REBAMKkEcRvqJhEbHPeC8", "plus_code": {"compound_code": "9GCJ+3P Z\u00fcrich, Switzerland", "global_code": "8FVC9GCJ+3P"}, "rating": 4.3, "reference": "ChIJj6REBAMKkEcRvqJhEbHPeC8", "scope": "GOOGLE", "types": ["restaurant", "food", "point_of_interest", "establishment"], "user_ratings_total": 106, "vicinity": "Sihlamtsstrasse 5, Z\u00fcrich"}, {"geometry": {"location": {"lat": 47.370916, "lng": 8.5283277}, "viewport": {"northeast": {"lat": 47.3722382802915, "lng": 8.529607780291501}, "southwest": {"lat": 47.3695403197085, "lng": 8.526909819708496}}}, "icon": "https://maps.gstatic.com/mapfiles/place_api/icons/restaurant-71.png", "id": "3be7693d5ac4f55a6700e38f84b20ce2c4992768", "name": "Il Giglio", "opening_hours": {"open_now": false}, "photos": [{"height": 3024, "html_attributions": ["<a href=\"https://maps.google.com/maps/contrib/110413400728347506519\">Patrick Seifried</a>"], "photo_reference": "CmRaAAAAKpDe5G8EMU1l02SzdXzjkGBqLs-SzSoz4cgXx-KdegrUdqgupAtuEUDSmJufY6xkWNidKxOpErs172iFp_vuT0ytf0yi9uJjCw_HhBmVSg9j2mEojSxDpngME2DxUmRWEhDr_8oheoN6MBx-KRK8qTolGhSwltNqkKyh3ldgbzQRLhwHfWCZVw", "width": 4032}], "place_id": "ChIJJ82AwxwKkEcRCpvgv7UBUNI", "plus_code": {"compound_code": "9GCH+98 Z\u00fcrich, Switzerland", "global_code": "8FVC9GCH+98"}, "price_level": 3, "rating": 4.6, "reference": "ChIJJ82AwxwKkEcRCpvgv7UBUNI", "scope": "GOOGLE", "types": ["restaurant", "food", "point_of_interest", "establishment"], "user_ratings_total": 87, "vicinity": "Weberstrasse 14, Z\u00fcrich"}, {"geometry": {"location": {"lat": 47.37117370000001, "lng": 8.528779199999999}, "viewport": {"northeast": {"lat": 47.3725901802915, "lng": 8.5301490802915}, "southwest": {"lat": 47.3698922197085, "lng": 8.527451119708495}}}, "icon": "https://maps.gstatic.com/mapfiles/place_api/icons/restaurant-71.png", "id": "e41cced3c2dd437ca693de0419ceceb90a02a6eb", "name": "La Perla Pizza Pasta", "opening_hours": {"open_now": false}, "photos": [{"height": 2268, "html_attributions": ["<a href=\"https://maps.google.com/maps/contrib/109440302046604899304\">murat can Tuna</a>"], "photo_reference": "CmRaAAAAHso5x5R5AaJeaAPWJew-0rx1YGVzBMbI4fL8bW8Ye4n_XqXs5AgpI9nGHvhUNQ1FvJbvnsJWm3Co0PI84O5jdI-wlGVqbqP2-GlJ9Z-yHDHnRo5ffGuF0GQ9v8fNxaw9EhAWV7boETTpYYofEZUFTpWjGhTVzqJlVkK1BPu1DMCpRfsx-HjLeg", "width": 4032}], "place_id": "ChIJeZkgSFsLkEcRWBcwNuvmHvY", "plus_code": {"compound_code": "9GCH+FG Z\u00fcrich, Switzerland", "global_code": "8FVC9GCH+FG"}, "rating": 4.9, "reference": "ChIJeZkgSFsLkEcRWBcwNuvmHvY", "scope": "GOOGLE", "types": ["meal_takeaway", "restaurant", "food", "point_of_interest", "establishment"], "user_ratings_total": 24, "vicinity": "Morgartenstrasse 15, Z\u00fcrich"}, {"geometry": {"location": {"lat": 47.3714133, "lng": 8.5297106}, "viewport": {"northeast": {"lat": 47.3727193802915, "lng": 8.531181080291503}, "southwest": {"lat": 47.3700214197085, "lng": 8.528483119708499}}}, "icon": "https://maps.gstatic.com/mapfiles/place_api/icons/restaurant-71.png", "id": "018289968582dc07bc2d6f12c8445353146d1e7b", "name": "dean&david Schweiz GmbH", "photos": [{"height": 1239, "html_attributions": ["<a href=\"https://maps.google.com/maps/contrib/113949344942328401670\">dean&amp;david Schweiz GmbH</a>"], "photo_reference": "CmRaAAAApzqFVLkB4lEV5G7vgxMAXSHsrVqmwgcPb9c0HVLUHstQnpxO9OQe8Hx1x8lv6DJyZyUXFYnbneHeO7lsqZlRfWF_UbPJqK8LgB-ajm2GHeTaJMShmfxx7f0uVRpYUFESEhAX7Pp9AhN-8yRg7rUfjW-bGhT0rpbXz-yPVmyqnGi3PhqafC7OZQ", "width": 1754}], "place_id": "ChIJi5nF06mgmkcRhnftF5wKNL4", "plus_code": {"compound_code": "9GCH+HV Z\u00fcrich, Switzerland", "global_code": "8FVC9GCH+HV"}, "rating": 3.9, "reference": "ChIJi5nF06mgmkcRhnftF5wKNL4", "scope": "GOOGLE", "types": ["restaurant", "food", "point_of_interest", "establishment"], "user_ratings_total": 7, "vicinity": "Ernst-Nobs-Platz 1, Z\u00fcrich"}, {"geometry": {"location": {"lat": 47.3714133, "lng": 8.5297106}, "viewport": {"northeast": {"lat": 47.3727193802915, "lng": 8.531181080291503}, "southwest": {"lat": 47.3700214197085, "lng": 8.528483119708499}}}, "icon": "https://maps.gstatic.com/mapfiles/place_api/icons/restaurant-71.png", "id": "6adfe39a597b48a70050d4d2e999dff2495b4d04", "name": "Mademoiselle Nobs", "opening_hours": {"open_now": false}, "photos": [{"height": 2988, "html_attributions": ["<a href=\"https://maps.google.com/maps/contrib/112665430431628815107\">P. Missoni</a>"], "photo_reference": "CmRaAAAAK2JMUFV2hgomUpdLS5WEYQsMXoLnSRPVQT1uHOLQEK8aSZrl2GFmEPSUrKS0YR9gcTLgzwKsT1nxKfPlybm6MA4oEuve15iVqhcMd12bfCpSYHgRRsJVCA7KU-jfcG-iEhAXiPr47qCVj0LSaWGpOP8TGhQXCX9EvoplR8Kkzo-JlddWGrm2Vg", "width": 5312}], "place_id": "ChIJ9yzbQOwLkEcRaWPGLSFB-6E", "plus_code": {"compound_code": "9GCH+HV Z\u00fcrich, Switzerland", "global_code": "8FVC9GCH+HV"}, "rating": 4.8, "reference": "ChIJ9yzbQOwLkEcRaWPGLSFB-6E", "scope": "GOOGLE", "types": ["restaurant", "food", "point_of_interest", "establishment"], "user_ratings_total": 5, "vicinity": "Ernst-Nobs-Platz 1, Z\u00fcrich"}, {"geometry": {"location": {"lat": 47.37118709999999, "lng": 8.528632699999998}, "viewport": {"northeast": {"lat": 47.37256053029149, "lng": 8.529938830291501}, "southwest": {"lat": 47.3698625697085, "lng": 8.527240869708496}}}, "icon": "https://maps.gstatic.com/mapfiles/place_api/icons/restaurant-71.png", "id": "8e05a8ef2fbdc2f45f02ad28889a20dca38828ab", "name": "Yen's", "opening_hours": {"open_now": false}, "photos": [{"height": 3264, "html_attributions": ["<a href=\"https://maps.google.com/maps/contrib/112866082606891030258\">Christof Rauber</a>"], "photo_reference": "CmRaAAAAT1q6TbvWRrFXywNCJ6qmCd6UoCGwmYcgO5oTBg3DphxB6OAiA2krLK2iXN8w_5UfKy8XVM7dEzqUSki_8NfpQJssqqEBBZ2K5pJ5LYLkm7FqhsyWmwHd_hMtAA4F6UrjEhDck_rLy3QEWUCw-ZSJZmuNGhSTFmSpuqcnfMN1N-fDl2el30hk4A", "width": 2448}], "place_id": "ChIJq1VyxxwKkEcR3FSI5aeC0dw", "plus_code": {"compound_code": "9GCH+FF Z\u00fcrich, Switzerland", "global_code": "8FVC9GCH+FF"}, "price_level": 2, "rating": 4.6, "reference": "ChIJq1VyxxwKkEcR3FSI5aeC0dw", "scope": "GOOGLE", "types": ["restaurant", "food", "point_of_interest", "establishment"], "user_ratings_total": 551, "vicinity": "Hallwylstrasse 43, Z\u00fcrich"}, {"geometry": {"location": {"lat": 47.3711636, "lng": 8.5284249}, "viewport": {"northeast": {"lat": 47.3725221802915, "lng": 8.529757030291501}, "southwest": {"lat": 47.36982421970851, "lng": 8.527059069708496}}}, "icon": "https://maps.gstatic.com/mapfiles/place_api/icons/bar-71.png", "id": "1197de0de6a2a8183e8b749974883c0080cf6d8d", "name": "Burgstein's Gasthaus Penalty", "opening_hours": {"open_now": false}, "photos": [{"height": 776, "html_attributions": ["<a href=\"https://maps.google.com/maps/contrib/115473962200860805786\">Burgstein&#39;s Gasthaus Penalty</a>"], "photo_reference": "CmRaAAAAEq4dqIS4-WCDGiKQ1AKWu8j2UrCAlJkZRQ8udTSyfQ5XFdC85IzRIy8AcbvlsnhLJNy0he4lHYK8tx9yHxYxT7dDuaPZUEiytzWGBOY2TMwIANjmLIT6qPsEptDekVw5EhAexmeUKeM3AI94UGiq4HnAGhRI1B2LOEe7wVRbfSaScm7ApfTfZw", "width": 640}], "place_id": "ChIJvyjXvhwKkEcRQSyqLbR3pzs", "plus_code": {"compound_code": "9GCH+F9 Z\u00fcrich, Switzerland", "global_code": "8FVC9GCH+F9"}, "rating": 4.3, "reference": "ChIJvyjXvhwKkEcRQSyqLbR3pzs", "scope": "GOOGLE", "types": ["bar", "restaurant", "food", "point_of_interest", "establishment"], "user_ratings_total": 117, "vicinity": "Hallwylstrasse 40, Z\u00fcrich"}, {"geometry": {"location": {"lat": 47.3708467, "lng": 8.5277923}, "viewport": {"northeast": {"lat": 47.3721480802915, "lng": 8.529228280291502}, "southwest": {"lat": 47.3694501197085, "lng": 8.526530319708497}}}, "icon": "https://maps.gstatic.com/mapfiles/place_api/icons/restaurant-71.png", "id": "a852b310768b007e16336e096bf1836898dea460", "name": "Paninoteca d'Antonietta", "opening_hours": {"open_now": false}, "photos": [{"height": 1152, "html_attributions": ["<a href=\"https://maps.google.com/maps/contrib/105888588107327733522\">ArmiNius</a>"], "photo_reference": "CmRaAAAAQrXtkP7nIt1CFcfCDnAqd8dssvL822zYGb9RkgeddqD8i6uvYe5gGkVZoTbB9CVaQMCooSadCzzm856YSo-W3nICmu4tuXtenj3SIKAvYuY-9zS1dyBRnG5MKynLpQ5PEhByvr1LeAjoNT3944QnYi_8GhRWTq8LBnr8w3PCCIgppzRAf0hnGg", "width": 2048}], "place_id": "ChIJKTf46BwKkEcR4qPPAFJKXY0", "plus_code": {"compound_code": "9GCH+84 Z\u00fcrich, Switzerland", "global_code": "8FVC9GCH+84"}, "rating": 4.6, "reference": "ChIJKTf46BwKkEcR4qPPAFJKXY0", "scope": "GOOGLE", "types": ["restaurant", "food", "point_of_interest", "establishment"], "user_ratings_total": 22, "vicinity": "Hallwylstrasse 56, Z\u00fcrich"}, {"geometry": {"location": {"lat": 47.3704858, "lng": 8.527361299999997}, "viewport": {"northeast": {"lat": 47.37178798029149, "lng": 8.528648080291504}, "southwest": {"lat": 47.3690900197085, "lng": 8.525950119708499}}}, "icon": "https://maps.gstatic.com/mapfiles/place_api/icons/restaurant-71.png", "id": "34603c45c10865f8288329b8da07ec5a36c32d1d", "name": "Fein und Schein", "opening_hours": {"open_now": false}, "photos": [{"height": 2736, "html_attributions": ["<a href=\"https://maps.google.com/maps/contrib/109257364059092160028\">Nisim Asis</a>"], "photo_reference": "CmRaAAAAGrjMxlgHpE5Soe6Z4Okai3zSl4tx66abYVZXKkKsFm5bvsZNnQbvHDUl3euExhgl8JilD3NPXGMhCqWeLEEcRyO_WvZUayFhh2uW7qAvwBdW13RQ8jOszxvhaNXsnXyTEhDtgWFFj5zFb7dQM1qcEk7sGhRFVumKIDd4mRcnKMl6mCmJOkKNsg", "width": 3648}], "place_id": "ChIJLf565BwKkEcRPxOX8FGQyNA", "plus_code": {"compound_code": "9GCG+5W Z\u00fcrich, Switzerland", "global_code": "8FVC9GCG+5W"}, "price_level": 2, "rating": 4.5, "reference": "ChIJLf565BwKkEcRPxOX8FGQyNA", "scope": "GOOGLE", "types": ["restaurant", "food", "point_of_interest", "establishment"], "user_ratings_total": 152, "vicinity": "Sch\u00f6ntalstrasse 14, Z\u00fcrich"}, {"geometry": {"location": {"lat": 47.3693444, "lng": 8.532513899999998}, "viewport": {"northeast": {"lat": 47.37062633029149, "lng": 8.533910680291502}, "southwest": {"lat": 47.36792836970849, "lng": 8.531212719708497}}}, "icon": "https://maps.gstatic.com/mapfiles/place_api/icons/restaurant-71.png", "id": "457b40185f84596c6250522fc02cfe422791f58d", "name": "Hato", "opening_hours": {"open_now": false}, "photos": [{"height": 5792, "html_attributions": ["<a href=\"https://maps.google.com/maps/contrib/105081466408627486825\">HATO Restaurant Z\u00fcrich</a>"], "photo_reference": "CmRaAAAAatYgKSL64O-hAdI2tkhmzNp24yVRYLYSY2wje--QoB_VHELkYUTiB6Z03knuOmGtVjTo3dlELKRRuR1CGHh7FC3rISehEz-0a1T5pvdH5T_JXB925Du-hb0vMMIfpDBbEhBZOZpUxlY8lio-JyssiflRGhTkMH6mL7-SXRf9m5EkCjdVgccA9g", "width": 8688}], "place_id": "ChIJa1I3UQIKkEcRiqUGlIFCT6M", "plus_code": {"compound_code": "9G9M+P2 Z\u00fcrich, Switzerland", "global_code": "8FVC9G9M+P2"}, "price_level": 4, "rating": 4.1, "reference": "ChIJa1I3UQIKkEcRiqUGlIFCT6M", "scope": "GOOGLE", "types": ["restaurant", "food", "point_of_interest", "establishment"], "user_ratings_total": 265, "vicinity": "Brandschenkestrasse 20, Z\u00fcrich"}, {"geometry": {"location": {"lat": 47.3716035, "lng": 8.5287585}, "viewport": {"northeast": {"lat": 47.3729130802915, "lng": 8.530178480291502}, "southwest": {"lat": 47.3702151197085, "lng": 8.527480519708497}}}, "icon": "https://maps.gstatic.com/mapfiles/place_api/icons/restaurant-71.png", "id": "3d82a5c86e658865876866146d9e982e9c9e24b8", "name": "Spoon", "photos": [{"height": 3024, "html_attributions": ["<a href=\"https://maps.google.com/maps/contrib/101676176315380786781\">Eicher Ronnie</a>"], "photo_reference": "CmRaAAAAvWFoheiaTvqDItni0XPRSY42o5yUqZebacHw8EzOJcLrvFLm9F6CtIoiVow9sI3TruszIjie_SnNca0ON8E1MhzcByEbZoyDIgcZX_j4ym6YkEGFHCmG0GWtVsB9xe1DEhAD2AdKb0RU8b2LruT7j3OlGhSXrtnDPfeO1TGtVExgNZuicWjKPQ", "width": 4032}], "place_id": "ChIJb5RebD8LkEcR9QD3iZJtaeQ", "plus_code": {"compound_code": "9GCH+JG Z\u00fcrich, Switzerland", "global_code": "8FVC9GCH+JG"}, "rating": 4.7, "reference": "ChIJb5RebD8LkEcR9QD3iZJtaeQ", "scope": "GOOGLE", "types": ["restaurant", "food", "point_of_interest", "establishment"], "user_ratings_total": 48, "vicinity": "Hallwylstrasse 34, Z\u00fcrich"}, {"geometry": {"location": {"lat": 47.371851, "lng": 8.528991000000001}, "viewport": {"northeast": {"lat": 47.3731494802915, "lng": 8.530430980291504}, "southwest": {"lat": 47.37045151970851, "lng": 8.5277330197085}}}, "icon": "https://maps.gstatic.com/mapfiles/place_api/icons/restaurant-71.png", "id": "b559520bca8112612ce1d61bac409908ea8cadd6", "name": "Simply Soup", "opening_hours": {"open_now": false}, "photos": [{"height": 1067, "html_attributions": ["<a href=\"https://maps.google.com/maps/contrib/113932802683893030073\">Simply Soup</a>"], "photo_reference": "CmRaAAAA8WSmEN5o9p0nszDGAkFLn4MgAMDA2wcI0PVDCTppPC7adi08nhAD4-eL5QzTGclb0JS88AEn7b31qj1IZshD3cFQh7JLPmX2iDvIxDuCUNUcTR3-eKL16OHpTrfVJhpNEhDMf-tEyF8MyemCYefPxY7NGhTftLtNkKhpPkQ9dK7gkJFZoFdAsg", "width": 1600}], "place_id": "ChIJ3UgDsBwKkEcRGAxcQl7GCoU", "plus_code": {"compound_code": "9GCH+PH Z\u00fcrich, Switzerland", "global_code": "8FVC9GCH+PH"}, "price_level": 2, "rating": 4.6, "reference": "ChIJ3UgDsBwKkEcRGAxcQl7GCoU", "scope": "GOOGLE", "types": ["meal_takeaway", "restaurant", "food", "point_of_interest", "establishment"], "user_ratings_total": 91, "vicinity": "Hallwylstrasse 24, Z\u00fcrich"}, {"geometry": {"location": {"lat": 47.3718518, "lng": 8.528991300000001}, "viewport": {"northeast": {"lat": 47.3731501802915, "lng": 8.530431480291503}, "southwest": {"lat": 47.3704522197085, "lng": 8.527733519708498}}}, "icon": "https://maps.gstatic.com/mapfiles/place_api/icons/restaurant-71.png", "id": "c2fabf5290c1bcb36f730e8bb95749100c27e694", "name": "Yoomoo fat free frozen yogurt / Simply Soup GmbH", "opening_hours": {"open_now": false}, "place_id": "ChIJP4UjCa8LkEcRcSdr81SihDI", "plus_code": {"compound_code": "9GCH+PH Z\u00fcrich, Switzerland", "global_code": "8FVC9GCH+PH"}, "reference": "ChIJP4UjCa8LkEcRcSdr81SihDI", "scope": "GOOGLE", "types": ["meal_takeaway", "restaurant", "food", "point_of_interest", "establishment"], "vicinity": "Hallwylstrasse 24, Z\u00fcrich"}, {"geometry": {"location": {"lat": 47.37025829999999, "lng": 8.5328903}, "viewport": {"northeast": {"lat": 47.37156378029149, "lng": 8.534188230291502}, "southwest": {"lat": 47.36886581970849, "lng": 8.531490269708497}}}, "icon": "https://maps.gstatic.com/mapfiles/place_api/icons/restaurant-71.png", "id": "99be6507de47f16ba725ccdf3c46efcdc2302627", "name": "Nagasui", "opening_hours": {"open_now": false}, "photos": [{"height": 4016, "html_attributions": ["<a href=\"https://maps.google.com/maps/contrib/107829484808271968103\">Nagasui</a>"], "photo_reference": "CmRaAAAACbiat37wdLbSe4B3qR6D0S_ZrLZJdcKaI0iAO-VAd5mBFQ38zyZ-_lOTDAjc8mgqrqu71x6lafvCN3e7fL8dta8E6EXvOTME984hvXFa5mpVq8mcwilJflw3QE1eEZNxEhDIhwhpAeeNZygMGHTEGnXzGhT7vezMMg5loy2BAwHLeVV9Oh1nMQ", "width": 6016}], "place_id": "ChIJ7ae3rwMKkEcRJvQWk0SXx1Q", "plus_code": {"compound_code": "9GCM+45 Z\u00fcrich, Switzerland", "global_code": "8FVC9GCM+45"}, "price_level": 2, "rating": 4.2, "reference": "ChIJ7ae3rwMKkEcRJvQWk0SXx1Q", "scope": "GOOGLE", "types": ["restaurant", "food", "point_of_interest", "establishment"], "user_ratings_total": 326, "vicinity": "Selnaustrasse 16, Z\u00fcrich"}, {"geometry": {"location": {"lat": 47.3714869, "lng": 8.5278194}, "viewport": {"northeast": {"lat": 47.3727822302915, "lng": 8.529108630291503}, "southwest": {"lat": 47.3700842697085, "lng": 8.526410669708499}}}, "icon": "https://maps.gstatic.com/mapfiles/place_api/icons/bar-71.png", "id": "55b02d6a67b42a1f27fe92220f86742e318076df", "name": "Morgarten", "opening_hours": {"open_now": false}, "photos": [{"height": 1000, "html_attributions": ["<a href=\"https://maps.google.com/maps/contrib/106412430293988668512\">Morgarten Bar &amp; Restaurant</a>"], "photo_reference": "CmRaAAAAIVmB7gnH1thp0nf5I4_DkpfCX32GGjrQPe21uulGWLeiTo6a1H61aGSRQz7A2jz-18ZTU0vdwEqb5nRQB6oNemHdgcWlqt-c1_VbZIuJiV4qkOwIOTd7SXwgCEoSKwIdEhB829K060sBXjnX_MWCydG8GhSGAuWaRqXIRGYbtuIkYVIoQTSM5w", "width": 1500}], "place_id": "ChIJiZh9kxwKkEcR-mCTz0RroII", "plus_code": {"compound_code": "9GCH+H4 Z\u00fcrich, Switzerland", "global_code": "8FVC9GCH+H4"}, "price_level": 2, "rating": 4.2, "reference": "ChIJiZh9kxwKkEcR-mCTz0RroII", "scope": "GOOGLE", "types": ["cafe", "bar", "restaurant", "food", "point_of_interest", "establishment"], "user_ratings_total": 224, "vicinity": "Morgartenstrasse 26, Z\u00fcrich"}, {"geometry": {"location": {"lat": 47.3698405, "lng": 8.5331499}, "viewport": {"northeast": {"lat": 47.3712258802915, "lng": 8.534543830291502}, "southwest": {"lat": 47.3685279197085, "lng": 8.531845869708498}}}, "icon": "https://maps.gstatic.com/mapfiles/place_api/icons/restaurant-71.png", "id": "b116f098d03c725634bba29d79ae78d04ad65920", "name": "SelnauWok", "opening_hours": {"open_now": false}, "photos": [{"height": 2081, "html_attributions": ["<a href=\"https://maps.google.com/maps/contrib/102502387848004377120\">Tomas Valenta</a>"], "photo_reference": "CmRaAAAARGxXgd3fDUAatrYnFE--Pif3v8Thk_gzLVD-RGGrJaRkJfFbuPBALokvOgm6QiNhrrwouOFKf1W3HEmquEHORmnyFZWl043Hx2HyrZ4I9sxwRG88wfZQtEPrC3-j1hgzEhDYGq3MHN3pELP5Y0sXnKNVGhQzHqlSgGNd2nJVYfgeprx_8U6OUw", "width": 2817}], "place_id": "ChIJM5D_sgMKkEcRcLwHrDmrDpk", "plus_code": {"compound_code": "9G9M+W7 Z\u00fcrich, Switzerland", "global_code": "8FVC9G9M+W7"}, "price_level": 2, "rating": 4.1, "reference": "ChIJM5D_sgMKkEcRcLwHrDmrDpk", "scope": "GOOGLE", "types": ["meal_takeaway", "restaurant", "food", "point_of_interest", "establishment"], "user_ratings_total": 14, "vicinity": "Selnaustrasse 5, Z\u00fcrich"}, {"geometry": {"location": {"lat": 47.3705424, "lng": 8.526668299999999}, "viewport": {"northeast": {"lat": 47.3719338302915, "lng": 8.527950180291501}, "southwest": {"lat": 47.3692358697085, "lng": 8.525252219708497}}}, "icon": "https://maps.gstatic.com/mapfiles/place_api/icons/restaurant-71.png", "id": "1f2c9dd3d786b5d3ab32a3e6f36f148b7cc27b66", "name": "Peking", "opening_hours": {"open_now": false}, "photos": [{"height": 3840, "html_attributions": ["<a href=\"https://maps.google.com/maps/contrib/108717891585961825647\">Anthony H Yang</a>"], "photo_reference": "CmRaAAAApvUK0itMnhQbnouekcsMP-WNMpV_JzdeeQbJMj7hgwAtGN9JzaBv6l0S4ln261GRYuWl8XEBYNuRbaambS2EauX_ooHivGYBmZ1K0yvt6Y2Kj9HFVD0sGOfjfw8InPS8EhCKZ-AjYlZy2eiUoGhHaprcGhRPtBbxo0A7KmEJkdeeTbUueI0EMA", "width": 5120}], "place_id": "ChIJ1-JH-RwKkEcRNEY7_3NbliA", "plus_code": {"compound_code": "9GCG+6M Z\u00fcrich, Switzerland", "global_code": "8FVC9GCG+6M"}, "rating": 4.5, "reference": "ChIJ1-JH-RwKkEcRNEY7_3NbliA", "scope": "GOOGLE", "types": ["restaurant", "food", "point_of_interest", "establishment"], "user_ratings_total": 90, "vicinity": "Verena-Conzett-Strasse 21, Z\u00fcrich"}, {"geometry": {"location": {"lat": 47.3705252, "lng": 8.5266486}, "viewport": {"northeast": {"lat": 47.3719173302915, "lng": 8.527929430291502}, "southwest": {"lat": 47.3692193697085, "lng": 8.525231469708498}}}, "icon": "https://maps.gstatic.com/mapfiles/place_api/icons/restaurant-71.png", "id": "6b3038d2325281a737ae2159cf85aff5f3bcb5a9", "name": "\u5317\u4eac \u82cf\u9ece\u4e16", "place_id": "ChIJd342-RwKkEcRrTR1ppGX7pQ", "plus_code": {"compound_code": "9GCG+6M Z\u00fcrich, Switzerland", "global_code": "8FVC9GCG+6M"}, "reference": "ChIJd342-RwKkEcRrTR1ppGX7pQ", "scope": "GOOGLE", "types": ["restaurant", "food", "point_of_interest", "establishment"], "vicinity": "Verena-Conzett-Strasse 21, Z\u00fcrich"}, {"geometry": {"location": {"lat": 47.3695398, "lng": 8.5333366}, "viewport": {"northeast": {"lat": 47.3708613302915, "lng": 8.534712430291503}, "southwest": {"lat": 47.3681633697085, "lng": 8.532014469708498}}}, "icon": "https://maps.gstatic.com/mapfiles/place_api/icons/bar-71.png", "id": "2a84e18d58a951dc134cd0dbb65e64c662a63deb", "name": "Fleming's Brasserie & Wine Bar im Fleming's Hotel Z\u00fcrich", "opening_hours": {"open_now": false}, "place_id": "ChIJE8aDSwIKkEcRzf-ELJWnDoQ", "plus_code": {"compound_code": "9G9M+R8 Z\u00fcrich, Switzerland", "global_code": "8FVC9G9M+R8"}, "rating": 3, "reference": "ChIJE8aDSwIKkEcRzf-ELJWnDoQ", "scope": "GOOGLE", "types": ["bar", "restaurant", "food", "point_of_interest", "establishment"], "user_ratings_total": 1, "vicinity": "Brandschenkestrasse 10, Z\u00fcrich"}, {"geometry": {"location": {"lat": 47.37156390000001, "lng": 8.527399999999998}, "viewport": {"northeast": {"lat": 47.37284203029149, "lng": 8.528709530291502}, "southwest": {"lat": 47.3701440697085, "lng": 8.526011569708498}}}, "icon": "https://maps.gstatic.com/mapfiles/place_api/icons/restaurant-71.png", "id": "0ec140cc5eb15b38ab2d778165205298169738ce", "name": "Werdguet", "opening_hours": {"open_now": false}, "photos": [{"height": 2268, "html_attributions": ["<a href=\"https://maps.google.com/maps/contrib/106440879149094893562\">Agush Buja</a>"], "photo_reference": "CmRaAAAA3o2zwcKgV-1trxnkkqP49rF3wuL60ecoOxxQe3aohtQnfFxJZC59ogr6F2BJVqU0y_i-RwEEelMNIPrBnSpbV6B7uvEMLSqGIcnwaMDqxIR4Ycdw21x3U8vgsFlZos-0EhAxG5uwBFHjE9zYH1dYbrdcGhQXB9zxLTAiaEx8CpcXliAGy3RSKQ", "width": 4032}], "place_id": "ChIJx4_tkhwKkEcR-P0skZvkNPA", "plus_code": {"compound_code": "9GCG+JX Z\u00fcrich, Switzerland", "global_code": "8FVC9GCG+JX"}, "price_level": 2, "rating": 4.2, "reference": "ChIJx4_tkhwKkEcR-P0skZvkNPA", "scope": "GOOGLE", "types": ["restaurant", "food", "point_of_interest", "establishment"], "user_ratings_total": 142, "vicinity": "Morgartenstrasse 30, Z\u00fcrich"}], "status": "OK"}