{"html_attributions": [], "next_page_token": "CqQCIAEAAEQbH8yxJ0ae3DHZ_j94LRJ8U3cTMXmtklZfeelx-fiDAxhhZcubAceLVKBGLxspSeIYyrfxxW4_GzaYJEDQ9AstDilnIIxmQH3mTDKLx4ajjtUoo03CVhLRjrz1qYNwRoLTUKFg2oocqk4niLuuh09uIA7SlB3ZSYlCDOm43rCCyVIZezpcv-k3zESP1a2Nl1u11aXp6Uq4wpE0zvwNgn3p7q3sqmsyKhjIWFv-Cugs-Z9TKEkDISgl8KXxSLzRSba4JIKxSimIGnCfMoSyFa0ySXYzVyTZigZPtAz8MFTXWd2_JyRM_Yyb82iVdGO_UEzcj0nmfA6zx6Vy-L1QfkZoQ0YSzoedoVoSFHRs1559wopO-6HV89Y2hi4dwbtLAxIQDvjemKVuTj1RMellnuYmLBoUJysuDqxN4VYr8pJhIRGik3AvqoM", "results": [{"geometry": {"location": {"lat": 47.37049299999999, "lng": 8.516746}, "viewport": {"northeast": {"lat": 47.37191583029149, "lng": 8.518075980291503}, "southwest": {"lat": 47.36921786970849, "lng": 8.515378019708498}}}, "icon": "https://maps.gstatic.com/mapfiles/place_api/icons/restaurant-71.png", "id": "5af48f9a980c79d54d1ed3ed795362268e86a4d8", "name": "Yalla Habibi 2", "opening_hours": {"open_now": false}, "photos": [{"height": 1000, "html_attributions": ["<a href=\"https://maps.google.com/maps/contrib/108073452792435527556\">Yalla Habibi 2 Restaurant &amp; Shisha Lounge</a>"], "photo_reference": "CmRaAAAATwvIkBgxY49ze-9ab2cGcdiAsdsb70bT-_s_mWRzRgsQtrvWEHL5PSZdcgcTa5bH0ZhlQRmOGdvGGgH-S8wPg2Dxrpy-In9qdnDh84gRG8gZvmdntL-Z7jTsj8EwwRJJEhC8A2y4OZlwyRA_YjEt20tIGhQr-xSXKIbKsdKV9NTJgu7YuyvY0A", "width": 1779}], "place_id": "ChIJoTMkGD4LkEcRVJmtV71O_EQ", "plus_code": {"compound_code": "9GC8+5M Z\u00fcrich, Switzerland", "global_code": "8FVC9GC8+5M"}, "rating": 4.5, "reference": "ChIJoTMkGD4LkEcRVJmtV71O_EQ", "scope": "GOOGLE", "types": ["restaurant", "food", "point_of_interest", "establishment"], "user_ratings_total": 154, "vicinity": "Birmensdorferstrasse 191, Z\u00fcrich"}, {"geometry": {"location": {"lat": 47.3705251, "lng": 8.5172682}, "viewport": {"northeast": {"lat": 47.3718313302915, "lng": 8.518691980291504}, "southwest": {"lat": 47.3691333697085, "lng": 8.515994019708499}}}, "icon": "https://maps.gstatic.com/mapfiles/place_api/icons/bar-71.png", "id": "ee814833fdfa379c7c87bf078dd9cd90cafbc6b9", "name": "D-Vino", "opening_hours": {"open_now": false}, "photos": [{"height": 3840, "html_attributions": ["<a href=\"https://maps.google.com/maps/contrib/117094399378448351324\">D-Vino</a>"], "photo_reference": "CmRaAAAA6h39HweFjWOwMhHcnTDxlu0VSNuJvRvffeb935EHtMcIClucOQGeYQCNbIMoLDE48MvjZn6cLa2Ew3RN0ahS74NDQVIHEAoBC6r7jvMNG-cOR7YPA7_cY79_PH3xm-8wEhAw-B5hgkFlKvGBaFuIFSKDGhRjzT9tDYln3SZm34_TEupkikvJnw", "width": 5760}], "place_id": "ChIJJ-Rehx8KkEcRcs1Gy88zUg0", "plus_code": {"compound_code": "9GC8+6W Z\u00fcrich, Switzerland", "global_code": "8FVC9GC8+6W"}, "price_level": 2, "rating": 4.3, "reference": "ChIJJ-Rehx8KkEcRcs1Gy88zUg0", "scope": "GOOGLE", "types": ["bar", "restaurant", "food", "point_of_interest", "establishment"], "user_ratings_total": 179, "vicinity": "Bremgartnerstrasse 70, Z\u00fcrich"}, {"geometry": {"location": {"lat": 47.3703795, "lng": 8.5178028}, "viewport": {"northeast": {"lat": 47.37177903029149, "lng": 8.5191851802915}, "southwest": {"lat": 47.36908106970849, "lng": 8.516487219708495}}}, "icon": "https://maps.gstatic.com/mapfiles/place_api/icons/restaurant-71.png", "id": "9698ef70da62ed8bd7ede4e3aa4b689e3451eff0", "name": "Pasta Bazaar", "opening_hours": {"open_now": false}, "photos": [{"height": 1024, "html_attributions": ["<a href=\"https://maps.google.com/maps/contrib/112950061928195891488\">Christian Beck</a>"], "photo_reference": "CmRaAAAA8ciuPJibCplCiHRaymMp4KThVmbHtnafkQMrXgTdaaUPuEyKzKqb5WAmYIqsZvtZtnU-QeeT3IsyGtP8Llk-fLx0h-kejfbdfk1x5MS7uXyYkeQTyNV9hzA-gnQ7T5g5EhDTuSi4kJ2VtuqU3WCa2EDjGhQwIz2ycHAKfgnP0jruBTJzj7vyvQ", "width": 768}], "place_id": "ChIJ39C5l-ILkEcRV0oRQlh-IYo", "plus_code": {"compound_code": "9GC9+54 Z\u00fcrich, Switzerland", "global_code": "8FVC9GC9+54"}, "rating": 4.9, "reference": "ChIJ39C5l-ILkEcRV0oRQlh-IYo", "scope": "GOOGLE", "types": ["meal_takeaway", "restaurant", "food", "point_of_interest", "establishment"], "user_ratings_total": 21, "vicinity": "Birmensdorferstrasse 175, Z\u00fcrich"}, {"geometry": {"location": {"lat": 47.3709627, "lng": 8.516398500000001}, "viewport": {"northeast": {"lat": 47.3723321302915, "lng": 8.517792780291504}, "southwest": {"lat": 47.3696341697085, "lng": 8.5150948197085}}}, "icon": "https://maps.gstatic.com/mapfiles/place_api/icons/restaurant-71.png", "id": "7d1069ec8ede8482c2c60771278a23396a4da850", "name": "Grottino", "opening_hours": {"open_now": false}, "photos": [{"height": 3024, "html_attributions": ["<a href=\"https://maps.google.com/maps/contrib/118026251908303099632\">Stella Viktoria Schieffer</a>"], "photo_reference": "CmRaAAAA-KWu6LmPU-T1Ek-w36rZNogsKsKSW8rYm2fGLiALNn8Vls0RkdZHFnQ6tOh5R9fFyQVQXrk4nxiyeP8O2E8XSTVvZh5mxU_CiSUC6yya7D1PN5vVn67GrWiRIi0yQAB7EhCXUygS5uTtdyZ40Ke8GfhUGhRNEw_LunI1MSVFVNgjq74ZAGB60A", "width": 4032}], "place_id": "ChIJm2XJzCEKkEcRb-QlPiaei8c", "plus_code": {"compound_code": "9GC8+9H Z\u00fcrich, Switzerland", "global_code": "8FVC9GC8+9H"}, "price_level": 2, "rating": 4.4, "reference": "ChIJm2XJzCEKkEcRb-QlPiaei8c", "scope": "GOOGLE", "types": ["restaurant", "food", "point_of_interest", "establishment"], "user_ratings_total": 346, "vicinity": "Aemtlerstrasse 11, Z\u00fcrich"}, {"geometry": {"location": {"lat": 47.370226, "lng": 8.5181513}, "viewport": {"northeast": {"lat": 47.3716454302915, "lng": 8.519546880291502}, "southwest": {"lat": 47.3689474697085, "lng": 8.516848919708497}}}, "icon": "https://maps.gstatic.com/mapfiles/place_api/icons/restaurant-71.png", "id": "724637e2fe157f4e3a18e6663217d42a39c9aaa4", "name": "\u0e23\u0e49\u0e32\u0e19\u0e40\u0e04\u0e1a\u0e31\u0e1a", "place_id": "ChIJs9stLRILkEcRz9whHcxefB8", "plus_code": {"compound_code": "9GC9+37 Z\u00fcrich, Switzerland", "global_code": "8FVC9GC9+37"}, "reference": "ChIJs9stLRILkEcRz9whHcxefB8", "scope": "GOOGLE", "types": ["restaurant", "food", "point_of_interest", "establishment"], "vicinity": "Birmensdorferstrasse 170, Z\u00fcrich"}, {"geometry": {"location": {"lat": 47.3710142, "lng": 8.5162139}, "viewport": {"northeast": {"lat": 47.3724054302915, "lng": 8.517653730291503}, "southwest": {"lat": 47.36970746970851, "lng": 8.514955769708498}}}, "icon": "https://maps.gstatic.com/mapfiles/place_api/icons/restaurant-71.png", "id": "e3b3eed0011a946de2db9130e20f8e38e4d6da77", "name": "Olive", "opening_hours": {"open_now": true}, "photos": [{"height": 4032, "html_attributions": ["<a href=\"https://maps.google.com/maps/contrib/100326210435295552076\">Ledronnie Yay</a>"], "photo_reference": "CmRaAAAAHewq8PsZwZ3wYcQw90kFW872CLu8Q0DZpQcw28i6ypu7FTC0DOUu8ZiYPth_QF_-1c9pUeYy1klNOSQMNnFb4yqXk5B9B5TAVXsYtTne23ud_xtT4EET9HjIfExm2j9dEhC8goyTKgiZGO2tgPKNClN6GhS4fRsnwHzOMoT0wdZesFelJk7MaA", "width": 3024}], "place_id": "ChIJEX-YzCEKkEcRZYAri5KtzkY", "plus_code": {"compound_code": "9GC8+CF Z\u00fcrich, Switzerland", "global_code": "8FVC9GC8+CF"}, "rating": 4, "reference": "ChIJEX-YzCEKkEcRZYAri5KtzkY", "scope": "GOOGLE", "types": ["restaurant", "food", "point_of_interest", "establishment"], "user_ratings_total": 21, "vicinity": "Aemtlerstrasse 13, Z\u00fcrich"}, {"geometry": {"location": {"lat": 47.37026290000001, "lng": 8.5182092}, "viewport": {"northeast": {"lat": 47.3716596302915, "lng": 8.519589780291502}, "southwest": {"lat": 47.3689616697085, "lng": 8.516891819708498}}}, "icon": "https://maps.gstatic.com/mapfiles/place_api/icons/restaurant-71.png", "id": "7fc6fc4bf7fef2497476287c7f89ca58c48122b2", "name": "La Favorita", "opening_hours": {"open_now": false}, "photos": [{"height": 3024, "html_attributions": ["<a href=\"https://maps.google.com/maps/contrib/113355563461735998150\">Diana Tapus</a>"], "photo_reference": "CmRaAAAAEmzyihaY0Sfxr1LD2k_Tq8RLhjmBhirE6TjHrkQrYCsjo2c3oyuXDBtQI_tgFCpivZzv1TliVFLV-cR8zmVeaNCEGX6vJUHTGI5HBMy0Dws0gXSzRXb9Vw8B4VdRFQ9YEhBjEhKiNf1bzqOTht7cf5KxGhQ8VxUps7Wt6GVFZCquz2uCRDWH8Q", "width": 4032}], "place_id": "ChIJKSgemh8KkEcRQCEJdHjwPW4", "plus_code": {"compound_code": "9GC9+47 Z\u00fcrich, Switzerland", "global_code": "8FVC9GC9+47"}, "rating": 3.8, "reference": "ChIJKSgemh8KkEcRQCEJdHjwPW4", "scope": "GOOGLE", "types": ["meal_delivery", "meal_takeaway", "restaurant", "food", "point_of_interest", "establishment"], "user_ratings_total": 132, "vicinity": "Birmensdorferstrasse 169, Z\u00fcrich"}, {"geometry": {"location": {"lat": 47.3700017, "lng": 8.5183609}, "viewport": {"northeast": {"lat": 47.3713607802915, "lng": 8.519801280291503}, "southwest": {"lat": 47.3686628197085, "lng": 8.517103319708498}}}, "icon": "https://maps.gstatic.com/mapfiles/place_api/icons/restaurant-71.png", "id": "b7e036010b1d2c99bf5866407838dc6115f25bc5", "name": "Scheidegg", "opening_hours": {"open_now": false}, "photos": [{"height": 2268, "html_attributions": ["<a href=\"https://maps.google.com/maps/contrib/107091835545832499784\">Michael Jedamzik</a>"], "photo_reference": "CmRaAAAATPwj13ed2NV9ngUKcDD9P4vo_8LRM_0ryppETNKXyAOTWMTXqNskpBXIAa70Mc2lf1OZYrgnFj0lKrBhvcBOwJVtUebDZsz2mKq7jIPYz6nyeSbqm5OFwpslckTEzR7iEhBK35DBMPo_egvGP_jxmgOiGhROa1SLAS3D-VnyzLQ2z79fFQ-hfw", "width": 4032}], "place_id": "ChIJ-z9plh8KkEcRTKlPYZ3XyrA", "plus_code": {"compound_code": "9GC9+28 Z\u00fcrich, Switzerland", "global_code": "8FVC9GC9+28"}, "price_level": 1, "rating": 3.5, "reference": "ChIJ-z9plh8KkEcRTKlPYZ3XyrA", "scope": "GOOGLE", "types": ["restaurant", "food", "point_of_interest", "establishment"], "user_ratings_total": 30, "vicinity": "Kehlhofstrasse 2, Z\u00fcrich"}, {"geometry": {"location": {"lat": 47.3705536, "lng": 8.5149372}, "viewport": {"northeast": {"lat": 47.37184148029151, "lng": 8.516304980291503}, "southwest": {"lat": 47.36914351970851, "lng": 8.513607019708498}}}, "icon": "https://maps.gstatic.com/mapfiles/place_api/icons/restaurant-71.png", "id": "2e3fa4f73ff363a78e5303bb07179896a0c5ea88", "name": "Three courses", "opening_hours": {"open_now": false}, "photos": [{"height": 3024, "html_attributions": ["<a href=\"https://maps.google.com/maps/contrib/101414591619603686057\">Laithaisong Nueng</a>"], "photo_reference": "CmRaAAAAhz3P1uGQZhShdug_SNKhBoqaVwN5shtXuM-ycMDFQBltDg66CARrSS10yUw9F4UUVHV-OfYCesdgTsryXJR3HZ6okcM0p05d6Fr5uly19ETqERVdZiIKM6Ivte6uc-3xEhAKsO5ucXX0mf0gb2pEQQNmGhTw2uDzzOn-Dgcclaq-S8N6m43b2g", "width": 4032}], "place_id": "ChIJHaq57jULkEcRTuA6Apc6adY", "plus_code": {"compound_code": "9GC7+6X Z\u00fcrich, Switzerland", "global_code": "8FVC9GC7+6X"}, "price_level": 2, "rating": 4.8, "reference": "ChIJHaq57jULkEcRTuA6Apc6adY", "scope": "GOOGLE", "types": ["restaurant", "food", "point_of_interest", "establishment"], "user_ratings_total": 34, "vicinity": "Birmensdorferstrasse 222, Z\u00fcrich"}, {"geometry": {"location": {"lat": 47.3713012, "lng": 8.5163341}, "viewport": {"northeast": {"lat": 47.37262898029149, "lng": 8.517635630291503}, "southwest": {"lat": 47.3699310197085, "lng": 8.514937669708498}}}, "icon": "https://maps.gstatic.com/mapfiles/place_api/icons/bar-71.png", "id": "bc987914f829219908e94053a91ed1badc10dccb", "name": "Pl\u00fcsch \u2014 Cafe Bar", "opening_hours": {"open_now": false}, "photos": [{"height": 3024, "html_attributions": ["<a href=\"https://maps.google.com/maps/contrib/104173670420845597323\">David Aerne</a>"], "photo_reference": "CmRZAAAAWvHgprQLrSn4vjzWlqnU46w57fLDcf2Lh35dEhl1Hw5byhgeKS5MLwuxrNMkDPdvwCFu9A6TTEyf1YgtHS_HbqSymixIgWuHvU4sZf6s2TCRLTIx8CPN9sgqQxtji0WQEhCl1PjfNsgFXSElx6vrWm0rGhQT-MS2Cm2T97lTLMMoXmFNgucVJw", "width": 4032}], "place_id": "ChIJQ4MBzCEKkEcRzr05Lci8e7E", "plus_code": {"compound_code": "9GC8+GG Z\u00fcrich, Switzerland", "global_code": "8FVC9GC8+GG"}, "price_level": 2, "rating": 4.3, "reference": "ChIJQ4MBzCEKkEcRzr05Lci8e7E", "scope": "GOOGLE", "types": ["bar", "cafe", "restaurant", "food", "point_of_interest", "establishment"], "user_ratings_total": 333, "vicinity": "Aemtlerstrasse 16, Z\u00fcrich"}, {"geometry": {"location": {"lat": 47.37135, "lng": 8.516359999999999}, "viewport": {"northeast": {"lat": 47.37266633029149, "lng": 8.517635930291503}, "southwest": {"lat": 47.3699683697085, "lng": 8.514937969708498}}}, "icon": "https://maps.gstatic.com/mapfiles/place_api/icons/restaurant-71.png", "id": "18e76011307027e82c068ae571f47f8d9ed50891", "name": "Hausgemachte Pasta kaufen", "opening_hours": {"open_now": false}, "photos": [{"height": 4480, "html_attributions": ["<a href=\"https://maps.google.com/maps/contrib/111649223322722256974\">Sabesan Arumugam</a>"], "photo_reference": "CmRaAAAApXvIf485Dpn812Mdht7DYRgR7Vf2RP5UWdH2aJA7lroXtG6eCSALykbjYCEa6vMXTUxw3gO8-mO_mn7pi_1pTfVns2WnG4-upxPX9KeMF7aqhkHzlTGvIzkqHMIvEUQ4EhDcAsdJ3MZbQPubvyu0PU4hGhQa3gS0C584E7DGrxylNVwn7PIk5Q", "width": 6720}], "place_id": "ChIJo1zum0ULkEcRrEdE0BKOhVo", "plus_code": {"compound_code": "9GC8+GG Z\u00fcrich, Switzerland", "global_code": "8FVC9GC8+GG"}, "rating": 5, "reference": "ChIJo1zum0ULkEcRrEdE0BKOhVo", "scope": "GOOGLE", "types": ["restaurant", "food", "point_of_interest", "establishment"], "user_ratings_total": 3, "vicinity": "Aemtlerstrasse 16, Z\u00fcrich"}, {"geometry": {"location": {"lat": 47.371385, "lng": 8.516416999999999}, "viewport": {"northeast": {"lat": 47.3726871802915, "lng": 8.517661180291501}, "southwest": {"lat": 47.3699892197085, "lng": 8.514963219708497}}}, "icon": "https://maps.gstatic.com/mapfiles/place_api/icons/restaurant-71.png", "id": "343fa1e1dfe50814a3411cc62e08c576e5261b9e", "name": "Pasta Rada", "opening_hours": {"open_now": false}, "photos": [{"height": 4032, "html_attributions": ["<a href=\"https://maps.google.com/maps/contrib/111649223322722256974\">Sabesan Arumugam</a>"], "photo_reference": "CmRaAAAA2rg68vKmXebdQ83ppQ0qFWRFv7z0ymaCE-_mm3nNXTXY87FW0hhRGW-nymm85lMfKGQQRzFgnwnkFr3bffMhS70fPksIRNFi3uX3aA5SVtIJ6qn_Jjp_6FAtAXlixogZEhArgrV2JlSCdH55Wy6OrQCVGhQ9RO3WLFrR1E0DUnwYyMnmX9aYkg", "width": 3024}], "place_id": "ChIJz1VdxW4KkEcRzIhsbMoceXw", "plus_code": {"compound_code": "9GC8+HH Z\u00fcrich, Switzerland", "global_code": "8FVC9GC8+HH"}, "rating": 4.3, "reference": "ChIJz1VdxW4KkEcRzIhsbMoceXw", "scope": "GOOGLE", "types": ["restaurant", "food", "point_of_interest", "establishment"], "user_ratings_total": 12, "vicinity": "Aemtlerstrasse 16, Z\u00fcrich"}, {"geometry": {"location": {"lat": 47.3713839, "lng": 8.516280799999999}, "viewport": {"northeast": {"lat": 47.37270883029149, "lng": 8.517571880291502}, "southwest": {"lat": 47.3700108697085, "lng": 8.514873919708497}}}, "icon": "https://maps.gstatic.com/mapfiles/place_api/icons/restaurant-71.png", "id": "f9869ff3a7063bf6e73501b5669af1bffd4f53fa", "name": "Les D\u00e9lices d'Orient", "opening_hours": {"open_now": false}, "photos": [{"height": 3036, "html_attributions": ["<a href=\"https://maps.google.com/maps/contrib/113332906125310534802\">Marc Diethelm</a>"], "photo_reference": "CmRaAAAAzsNVrPVnNQV1ztRYWvwxlG9T_aBWCBU-DPdnyOvLnKeah3tW0U6_DCA8CQxa0A5aqwkkPKzokEbyj4UcScBSIhUATKG6iAjGOm8YQFIU4QOn-8GHq4zrS9c2u0zk_LFYEhCRhi9M23t7O8At6kGKEnhBGhTBFK9vqJ0SeRLVrl5InLZLZiCwDg", "width": 4048}], "place_id": "ChIJe7IgyiEKkEcRKbwbMKKSShM", "plus_code": {"compound_code": "9GC8+HG Z\u00fcrich, Switzerland", "global_code": "8FVC9GC8+HG"}, "rating": 4.7, "reference": "ChIJe7IgyiEKkEcRKbwbMKKSShM", "scope": "GOOGLE", "types": ["restaurant", "food", "point_of_interest", "establishment"], "user_ratings_total": 75, "vicinity": "Aemtlerstrasse 18, Z\u00fcrich"}, {"geometry": {"location": {"lat": 47.3707789, "lng": 8.5146994}, "viewport": {"northeast": {"lat": 47.3721835802915, "lng": 8.5161649302915}, "southwest": {"lat": 47.3694856197085, "lng": 8.513466969708496}}}, "icon": "https://maps.gstatic.com/mapfiles/place_api/icons/bar-71.png", "id": "ff233e70361766967275ea66b52f718504a60926", "name": "Restaurant Mesob", "photos": [{"height": 4032, "html_attributions": ["<a href=\"https://maps.google.com/maps/contrib/100200632860622552891\">Moya Della Torre</a>"], "photo_reference": "CmRaAAAA8nph51GflaE_6qSSC7xZu86N2AUdCPxvPqS1zXtgwUV6mIZKiR65fV9KvY6BmA2cWpBoFRl4xbKeKzIOqkS2yAFavhVOz7L3qNJ-kw8HTjKDJsOqXpGokEzTAz6O4igeEhDOysWLrXLFUGTooVO2xWR_GhS1fnM7Nn2MtYV4WqdM3Ialhd486w", "width": 3024}], "place_id": "ChIJWYb8UyAKkEcR_bLiO0wIq3M", "plus_code": {"compound_code": "9GC7+8V Z\u00fcrich, Switzerland", "global_code": "8FVC9GC7+8V"}, "price_level": 2, "rating": 4.5, "reference": "ChIJWYb8UyAKkEcR_bLiO0wIq3M", "scope": "GOOGLE", "types": ["bar", "restaurant", "food", "point_of_interest", "establishment"], "user_ratings_total": 315, "vicinity": "Rotachstrasse 33, Z\u00fcrich"}, {"geometry": {"location": {"lat": 47.37016389999999, "lng": 8.5137498}, "viewport": {"northeast": {"lat": 47.3715040302915, "lng": 8.5151007302915}, "southwest": {"lat": 47.3688060697085, "lng": 8.512402769708496}}}, "icon": "https://maps.gstatic.com/mapfiles/place_api/icons/restaurant-71.png", "id": "d6d315169c43afe59d097d792ba052c357961187", "name": "Joey's Lokal", "opening_hours": {"open_now": false}, "place_id": "ChIJ32EL9CAKkEcRpH-l2C9TyIY", "plus_code": {"compound_code": "9GC7+3F Z\u00fcrich, Switzerland", "global_code": "8FVC9GC7+3F"}, "rating": 5, "reference": "ChIJ32EL9CAKkEcRpH-l2C9TyIY", "scope": "GOOGLE", "types": ["restaurant", "food", "point_of_interest", "establishment"], "user_ratings_total": 3, "vicinity": "Goldbrunnenplatz, Z\u00fcrich"}, {"geometry": {"location": {"lat": 47.36954829999999, "lng": 8.513717599999998}, "viewport": {"northeast": {"lat": 47.37094318029149, "lng": 8.5149875302915}, "southwest": {"lat": 47.36824521970849, "lng": 8.512289569708495}}}, "icon": "https://maps.gstatic.com/mapfiles/place_api/icons/lodging-71.png", "id": "2c4369243102edf414c04c2a6f80999fa429dbb8", "name": "Hotel Restaurant Neufeld", "opening_hours": {"open_now": true}, "photos": [{"height": 1366, "html_attributions": ["<a href=\"https://maps.google.com/maps/contrib/117984330445521153906\">Hotel Restaurant Neufeld</a>"], "photo_reference": "CmRaAAAAgRJcX2XfikZYsKm48f5eEaKQzRiFo65YtYA2GOf1A1l8KeBS9RXaltWiC8xPBfNGV1qSovw7P68O5lx9eesZugrxn0slDt4Wpegm2UxNNdjw_QaAzo4uI3CV0JB4duXBEhCMufPL6on9ImlGUxV_BLzSGhRwDFmRL5mQsK18utJhVtUml6lL0w", "width": 2048}], "place_id": "ChIJe1jZiyAKkEcRw3zzUjYLWeE", "plus_code": {"compound_code": "9G97+RF Z\u00fcrich, Switzerland", "global_code": "8FVC9G97+RF"}, "rating": 3.9, "reference": "ChIJe1jZiyAKkEcRw3zzUjYLWeE", "scope": "GOOGLE", "types": ["lodging", "restaurant", "food", "point_of_interest", "establishment"], "user_ratings_total": 173, "vicinity": "Friesenbergstrasse 15, Z\u00fcrich"}, {"geometry": {"location": {"lat": 47.36954829999999, "lng": 8.513717599999998}, "viewport": {"northeast": {"lat": 47.37094318029149, "lng": 8.5149875302915}, "southwest": {"lat": 47.36824521970849, "lng": 8.512289569708495}}}, "icon": "https://maps.gstatic.com/mapfiles/place_api/icons/restaurant-71.png", "id": "8f15100b17b79c4b84f7c35ec7d2879e3d54972a", "name": "Restaurant Neufeld", "opening_hours": {"open_now": false}, "place_id": "ChIJaQSnIXkLkEcRWYeWR-a8BvY", "plus_code": {"compound_code": "9G97+RF Z\u00fcrich, Switzerland", "global_code": "8FVC9G97+RF"}, "reference": "ChIJaQSnIXkLkEcRWYeWR-a8BvY", "scope": "GOOGLE", "types": ["restaurant", "food", "point_of_interest", "establishment"], "vicinity": "Friesenbergstrasse 15, Z\u00fcrich"}, {"geometry": {"location": {"lat": 47.3718035, "lng": 8.515921400000002}, "viewport": {"northeast": {"lat": 47.3731155302915, "lng": 8.517191580291502}, "southwest": {"lat": 47.3704175697085, "lng": 8.514493619708498}}}, "icon": "https://maps.gstatic.com/mapfiles/place_api/icons/restaurant-71.png", "id": "d82a6b5c246e96efe400e27e192aa8c8ad27f16f", "name": "La C\u00f4te", "opening_hours": {"open_now": false}, "photos": [{"height": 2736, "html_attributions": ["<a href=\"https://maps.google.com/maps/contrib/113335404468886028099\">Demetrius Rinderknecht</a>"], "photo_reference": "CmRaAAAAD-VUUQAVxzoP2hH6vNybINGhrTUdyKm61SLusmdc8TXALl5lqT-TqVRi9pQVvNI4d3n7U5sfsxSKv5cpPx_9xktnbz6FV_aFQkbuQb-4KLQKKx8aSO5SAmPOMazSdYb9EhBwkmXMANANhoP2IEC9ZPf_GhRatYnVouzVLR3BoWdskQXG5Z1nMg", "width": 3648}], "place_id": "ChIJO_apuSEKkEcRvHz6cQrBRms", "plus_code": {"compound_code": "9GC8+P9 Z\u00fcrich, Switzerland", "global_code": "8FVC9GC8+P9"}, "price_level": 2, "rating": 4.3, "reference": "ChIJO_apuSEKkEcRvHz6cQrBRms", "scope": "GOOGLE", "types": ["restaurant", "food", "point_of_interest", "establishment"], "user_ratings_total": 319, "vicinity": "Aemtlerstrasse 26, Z\u00fcrich"}, {"geometry": {"location": {"lat": 47.3702332, "lng": 8.519485999999999}, "viewport": {"northeast": {"lat": 47.3713921302915, "lng": 8.521096130291504}, "southwest": {"lat": 47.3686941697085, "lng": 8.5183981697085}}}, "icon": "https://maps.gstatic.com/mapfiles/place_api/icons/restaurant-71.png", "id": "979c2061e8508fc285d00ef162e1cf3b34a909b3", "name": "Gasthof Falken", "opening_hours": {"open_now": false}, "place_id": "ChIJ8RG3KLgLkEcRn70lr6f_knw", "plus_code": {"compound_code": "9GC9+3Q Z\u00fcrich, Switzerland", "global_code": "8FVC9GC9+3Q"}, "reference": "ChIJ8RG3KLgLkEcRn70lr6f_knw", "scope": "GOOGLE", "types": ["restaurant", "food", "point_of_interest", "establishment"], "vicinity": "Birmensdorferstrasse 150, Z\u00fcrich"}, {"geometry": {"location": {"lat": 47.3705975, "lng": 8.5137603}, "viewport": {"northeast": {"lat": 47.3718975802915, "lng": 8.515256380291502}, "southwest": {"lat": 47.3691996197085, "lng": 8.512558419708498}}}, "icon": "https://maps.gstatic.com/mapfiles/place_api/icons/restaurant-71.png", "id": "fe53ed5181ff6ca77536652d1bbb752e7e1a579e", "name": "Xi Muoi Viet Nam Restaurant", "opening_hours": {"open_now": false}, "photos": [{"height": 3096, "html_attributions": ["<a href=\"https://maps.google.com/maps/contrib/103777948826335712247\">Dominic Schelling</a>"], "photo_reference": "CmRaAAAANYKcBt_x_gwX2f1T455ALKSV5RFCUQ4wCXl0gze88L1teeei7t_NyywvIBqqQUYkt0Nbczsw31AJJnzQUtMTlWfVJBRHO2amgOeBGRfCvDouyDwNo29G7Fu8E7siLE42EhDsxAXDW7M2Pc-HC5l-M9T0GhQOfZ3tJHTt4OeF5rR00QIa18mQeQ", "width": 4128}], "place_id": "ChIJUR-U-SAKkEcRF26NZ0PchqQ", "plus_code": {"compound_code": "9GC7+6G Z\u00fcrich, Switzerland", "global_code": "8FVC9GC7+6G"}, "price_level": 1, "rating": 4.1, "reference": "ChIJUR-U-SAKkEcRF26NZ0PchqQ", "scope": "GOOGLE", "types": ["meal_takeaway", "restaurant", "food", "point_of_interest", "establishment"], "user_ratings_total": 80, "vicinity": "Kalkbreitestrasse 134, Z\u00fcrich"}], "status": "OK"}