{"html_attributions": [], "next_page_token": "CqQCIAEAAL7ykqGfRTMUsHKnaDcRBY2WHYLbluQxbV-ZbSCLFax2RMR4OfPmvV1pQHR2WmMXCwO3OnlUOGwxg1xQdNh7X087WQV67moE5FNWa02rA6ATZcEqRWn031HXJQWJ5eSewy1RBe44k7zTFU6og1av2VrsdpwOKnGE2zuLVB50zmM1Xr_8AyN_YjgTVmiw9aZUrXTCQIyV3m1RTmZJJPBV4un4iuOTMaZDqPe-G-85PBti49oeZdjsp6Oqxe0az2Djhv8D4oitYW3I6epR-nDmTVdrQZIhbmiOl05D3ShWCy1UBc5e6V4rz3puOYqC0wlfUwxQ7VWKq82tVWoLvIF4tAL4a_ahOwr_5zD10ketIwzFuSqUmYd74be-WBxw876YpBIQpracItt1u2d-ROOz397aExoU66XpdJgv91JWOKS34eX7dg6qBQ4", "results": [{"geometry": {"location": {"lat": 47.3577637, "lng": 8.549272300000002}, "viewport": {"northeast": {"lat": 47.3591916802915, "lng": 8.550570530291502}, "southwest": {"lat": 47.3564937197085, "lng": 8.547872569708499}}}, "icon": "https://maps.gstatic.com/mapfiles/place_api/icons/restaurant-71.png", "id": "98356c8764d50e824a104592ca9ca8bc98e8f67c", "name": "Eurest / Restaurant PartnerRe", "place_id": "ChIJ8VsOHcmnmkcRDWOXaWi76UE", "plus_code": {"compound_code": "9G5X+4P Z\u00fcrich, Switzerland", "global_code": "8FVC9G5X+4P"}, "reference": "ChIJ8VsOHcmnmkcRDWOXaWi76UE", "scope": "GOOGLE", "types": ["restaurant", "food", "point_of_interest", "establishment"], "vicinity": "Bellerivestrasse 36, Z\u00fcrich"}, {"geometry": {"location": {"lat": 47.35723749999999, "lng": 8.552825599999998}, "viewport": {"northeast": {"lat": 47.3585985802915, "lng": 8.554164980291503}, "southwest": {"lat": 47.3559006197085, "lng": 8.551467019708499}}}, "icon": "https://maps.gstatic.com/mapfiles/place_api/icons/cafe-71.png", "id": "01b6342ef6a3b898afef2bf13bb8efdebe0a4a4b", "name": "Maison 33 Cafe & Bistro", "opening_hours": {"open_now": false}, "photos": [{"height": 1863, "html_attributions": ["<a href=\"https://maps.google.com/maps/contrib/110936377140308710181\">Maison 33 Cafe &amp; Bistro</a>"], "photo_reference": "CmRZAAAAY5ByVT8taDcU3-K9fJowgmUH1iazaX2nVoP4_am1EqbAgliGz6p_XTTAFo9OX6f1Nsz3UsHwqavxSyU3_iO38yyC9aBvM2hjvbqbB5G4JipD0-Ca3KN1ksobsyfbDVeVEhDzoQz7nDF5_u1iXcgw7-Y8GhTfgCcAwnayvabE0p5912JJ9YA-zA", "width": 1863}], "place_id": "ChIJCfC0baCnmkcR6S1EXsHKHPQ", "plus_code": {"compound_code": "9H43+V4 Z\u00fcrich, Switzerland", "global_code": "8FVC9H43+V4"}, "rating": 4.8, "reference": "ChIJCfC0baCnmkcR6S1EXsHKHPQ", "scope": "GOOGLE", "types": ["cafe", "restaurant", "food", "point_of_interest", "store", "establishment"], "user_ratings_total": 21, "vicinity": "H\u00f6schgasse 33, Z\u00fcrich"}, {"geometry": {"location": {"lat": 47.3581505, "lng": 8.5478983}, "viewport": {"northeast": {"lat": 47.3594994802915, "lng": 8.549247280291503}, "southwest": {"lat": 47.3568015197085, "lng": 8.546549319708499}}}, "icon": "https://maps.gstatic.com/mapfiles/place_api/icons/restaurant-71.png", "id": "8b89fa92df294eabc5f0f7b964ff6b0b2953c461", "name": "Restaurant Kiosk", "opening_hours": {"open_now": false}, "photos": [{"height": 2268, "html_attributions": ["<a href=\"https://maps.google.com/maps/contrib/114094036004900785281\">Nicolas Berney</a>"], "photo_reference": "CmRaAAAA-pjGdCKyIPTzwtmD-scM64jTaKyOZlmSQ4FtF8GhnWdThioqD7JcnRYMlnbkPFQJFpbfIiRWAvMLhGdGKN9Yfw1FgsPmD9mQc07sn7cpNBBGDYTQ47iatu4q5NmsNddzEhDcwVmcH9wAiAkpUanKwHv5GhSZJ7q7VSCh4x_Y8vrrvrar9aTf-A", "width": 4032}], "place_id": "ChIJFTaCRVCnmkcRSfu6Z_63jxs", "plus_code": {"compound_code": "9G5X+75 Z\u00fcrich, Switzerland", "global_code": "8FVC9G5X+75"}, "price_level": 2, "rating": 4, "reference": "ChIJFTaCRVCnmkcRSfu6Z_63jxs", "scope": "GOOGLE", "types": ["restaurant", "food", "point_of_interest", "establishment"], "user_ratings_total": 578, "vicinity": "Seefeldquai 51, Z\u00fcrich"}, {"geometry": {"location": {"lat": 47.3571499, "lng": 8.5531072}, "viewport": {"northeast": {"lat": 47.3584792302915, "lng": 8.554401880291504}, "southwest": {"lat": 47.3557812697085, "lng": 8.5517039197085}}}, "icon": "https://maps.gstatic.com/mapfiles/place_api/icons/restaurant-71.png", "id": "e23e5300d13d9ba901bc0c688aff40a147c48a90", "name": "Thai Takeaway", "opening_hours": {"open_now": false}, "photos": [{"height": 4032, "html_attributions": ["<a href=\"https://maps.google.com/maps/contrib/105357512738721962091\">K.J.</a>"], "photo_reference": "CmRaAAAAH8u4EY_BiHLoYVqG-jcza9PfWeTzxeFk2i2oYDlMaj1SYCheRKPYMrQS4YGL3PtK9wrv6q01w2DisRkSYpi6XONknpYxLHwmUNO-vmH9EpWMZEfLHKirQlzo9XDTe6MmEhAu6JmuOniOvnnxUAX16oR6GhQbSEb3qr5Xa1Yml6XjqL6xDxREKg", "width": 3024}], "place_id": "ChIJPcJMC0-nmkcREQjYpq3QuY4", "plus_code": {"compound_code": "9H43+V6 Z\u00fcrich, Switzerland", "global_code": "8FVC9H43+V6"}, "rating": 4.4, "reference": "ChIJPcJMC0-nmkcREQjYpq3QuY4", "scope": "GOOGLE", "types": ["meal_takeaway", "restaurant", "food", "point_of_interest", "establishment"], "user_ratings_total": 8, "vicinity": "Dufourstrasse 131, Z\u00fcrich"}, {"geometry": {"location": {"lat": 47.3545374, "lng": 8.551954899999998}, "viewport": {"northeast": {"lat": 47.35602413029149, "lng": 8.5536585302915}, "southwest": {"lat": 47.3533261697085, "lng": 8.550960569708497}}}, "icon": "https://maps.gstatic.com/mapfiles/place_api/icons/restaurant-71.png", "id": "9551d9a114f865881cbb0017a5e782db2f915f89", "name": "Chinagarten", "opening_hours": {"open_now": false}, "photos": [{"height": 3024, "html_attributions": ["<a href=\"https://maps.google.com/maps/contrib/105357512738721962091\">K.J.</a>"], "photo_reference": "CmRaAAAAg7pNTzE84wwuOx_FwjB-SSR8XDz9VAxK9TMRt5bmelP47fPl4pnqcTzY_pdH6ia0Ahxbf2Ti-In7nhEcqMN5x9gmgCyp2iOl8TfvqRgy9cJoAzBff-j06W8VXtkMYR0HEhAYPXMsfEw1SARcTK3oU1O_GhSfcuYIPGv1_p71iKZdbfDAPtWfjQ", "width": 4032}], "place_id": "ChIJ7Z9zCkWnmkcRoBeJJDqATRQ", "plus_code": {"compound_code": "9H32+RQ Z\u00fcrich, Switzerland", "global_code": "8FVC9H32+RQ"}, "rating": 3.2, "reference": "ChIJ7Z9zCkWnmkcRoBeJJDqATRQ", "scope": "GOOGLE", "types": ["meal_takeaway", "restaurant", "food", "point_of_interest", "establishment"], "user_ratings_total": 33, "vicinity": "Bellerivestrasse 144, Z\u00fcrich"}, {"geometry": {"location": {"lat": 47.3580556, "lng": 8.5538889}, "viewport": {"northeast": {"lat": 47.3594435302915, "lng": 8.555340780291504}, "southwest": {"lat": 47.3567455697085, "lng": 8.552642819708499}}}, "icon": "https://maps.gstatic.com/mapfiles/place_api/icons/restaurant-71.png", "id": "c9f8d6b996e1cdd672895b02d5be2c4f822dcb49", "name": "Ristorante Tot\u00f2", "opening_hours": {"open_now": false}, "photos": [{"height": 1536, "html_attributions": ["<a href=\"https://maps.google.com/maps/contrib/110657502456125021227\">Ristorante Tot\u00f2</a>"], "photo_reference": "CmRaAAAAXMf73C9GdLMdtbXsBBdEDTDlxSyq9CIWuUBojkN6X7yXsoaTffQGaDbLj6uA52C3_wEQWtbwBN8Le4VNg_2rqYchZbaaHgrEJdKRGCjLCVBeydfAvViyM4O_YO7-9QYQEhDt_gLEEDFNas06o31EFwzsGhTY-Q_7qzPJi8OWmsMcdGQPwOkNGQ", "width": 2048}], "place_id": "ChIJnehQHE-nmkcRIsHFFEjgA30", "plus_code": {"compound_code": "9H53+6H Z\u00fcrich, Switzerland", "global_code": "8FVC9H53+6H"}, "rating": 4.1, "reference": "ChIJnehQHE-nmkcRIsHFFEjgA30", "scope": "GOOGLE", "types": ["night_club", "bar", "restaurant", "food", "point_of_interest", "establishment"], "user_ratings_total": 517, "vicinity": "Seefeldstrasse 124, Z\u00fcrich"}, {"geometry": {"location": {"lat": 47.3595947, "lng": 8.5512853}, "viewport": {"northeast": {"lat": 47.3609101802915, "lng": 8.552543580291502}, "southwest": {"lat": 47.35821221970851, "lng": 8.549845619708497}}}, "icon": "https://maps.gstatic.com/mapfiles/place_api/icons/restaurant-71.png", "id": "1a6e9c586ca861c1a3f8e8c0f22d830d5e293c28", "name": "Goldkind Tagesbar & Deli", "opening_hours": {"open_now": false}, "photos": [{"height": 3913, "html_attributions": ["<a href=\"https://maps.google.com/maps/contrib/117211687640234628880\">Goldkind Tagesbar &amp; Deli</a>"], "photo_reference": "CmRaAAAA9-w9PxaWIYu5wIwN801n-r3NqbGIwaa4u-Hria8stO4JuunB0JFSZJ49I7me7ThjZFHbzHZ0mjSL6yDGW7HfsthsTo-DJJ0pQpQyvZQOg7ErAxJ7mZ_3FZtAAAD6-N-aEhBLWHW4C7AE2v3e2fIFOJ1-GhT4woGnHYC2PNk7MtXd0_gjc_n_Zw", "width": 2609}], "place_id": "ChIJQ0JA0OWnmkcRka69SYAtKdg", "plus_code": {"compound_code": "9H52+RG Z\u00fcrich, Switzerland", "global_code": "8FVC9H52+RG"}, "rating": 5, "reference": "ChIJQ0JA0OWnmkcRka69SYAtKdg", "scope": "GOOGLE", "types": ["restaurant", "food", "point_of_interest", "establishment"], "user_ratings_total": 1, "vicinity": "Dufourstrasse 93, Z\u00fcrich"}, {"geometry": {"location": {"lat": 47.358482, "lng": 8.553982800000002}, "viewport": {"northeast": {"lat": 47.3598057802915, "lng": 8.555265030291503}, "southwest": {"lat": 47.3571078197085, "lng": 8.552567069708498}}}, "icon": "https://maps.gstatic.com/mapfiles/place_api/icons/bar-71.png", "id": "f2d1b09409a22e15437fcedbba588edcd32f9a44", "name": "D-Vino", "opening_hours": {"open_now": false}, "photos": [{"height": 1365, "html_attributions": ["<a href=\"https://maps.google.com/maps/contrib/105280197442585453254\">D-Vino</a>"], "photo_reference": "CmRaAAAAHdKCsaSqB5gJwRmGQ83axkeVujeQ_jHQpdGM0cVogAhJPKYimrxs8sVUBDKTuFNL2hpo6b1hvStjc7tC-jmMt8FwcFYOtpUcLqxOY9PUSJBF9VsFsw-22CPc8thcpXm1EhCZ3Y4gupobeig5ARa5WbO8GhQa7McRqEDtz7Z9EMMkfqrBPXtdQg", "width": 2048}], "place_id": "ChIJ0-wg406nmkcRCy-vKdrBQ5s", "plus_code": {"compound_code": "9H53+9H Z\u00fcrich, Switzerland", "global_code": "8FVC9H53+9H"}, "price_level": 2, "rating": 4.2, "reference": "ChIJ0-wg406nmkcRCy-vKdrBQ5s", "scope": "GOOGLE", "types": ["bar", "restaurant", "food", "point_of_interest", "establishment"], "user_ratings_total": 137, "vicinity": "Seefeldstrasse 113, Z\u00fcrich"}, {"geometry": {"location": {"lat": 47.3570437, "lng": 8.5549196}, "viewport": {"northeast": {"lat": 47.35843138029149, "lng": 8.5563562302915}, "southwest": {"lat": 47.35573341970849, "lng": 8.553658269708496}}}, "icon": "https://maps.gstatic.com/mapfiles/place_api/icons/restaurant-71.png", "id": "0c41f8aaac1982f6752aeeba1b465389ac7a72c2", "name": "FREYTAG Confiserie Caf\u00e9 AG", "opening_hours": {"open_now": false}, "photos": [{"height": 3024, "html_attributions": ["<a href=\"https://maps.google.com/maps/contrib/112582491367296338314\">Felix Tausch</a>"], "photo_reference": "CmRaAAAAIO48gJjCaeyo6DMmneVTHemJfTUemwxoqni6dNBWazijev3iROCDUlWCxnXJf8_44efaVtu8rPkE1f0G0wCn9rZEMl-FZcvugN2Vy1BdlO-9nvar0TkwkBKte2jTcbnKEhDZU2lrPx306Zq__MYH68bgGhSoPO2Y-38c7bFUq6qsN_rdCdObbw", "width": 5376}], "place_id": "ChIJ7XuyRASnmkcRg_ekLwI4t6E", "plus_code": {"compound_code": "9H43+RX Z\u00fcrich, Switzerland", "global_code": "8FVC9H43+RX"}, "rating": 4.3, "reference": "ChIJ7XuyRASnmkcRg_ekLwI4t6E", "scope": "GOOGLE", "types": ["restaurant", "bakery", "cafe", "food", "point_of_interest", "store", "establishment"], "user_ratings_total": 174, "vicinity": "Seefeldstrasse 144, Z\u00fcrich"}, {"geometry": {"location": {"lat": 47.358316, "lng": 8.554279000000001}, "viewport": {"northeast": {"lat": 47.3596167802915, "lng": 8.555500330291503}, "southwest": {"lat": 47.3569188197085, "lng": 8.552802369708498}}}, "icon": "https://maps.gstatic.com/mapfiles/place_api/icons/restaurant-71.png", "id": "2cb412a398deb1ffd36bf6edf788113549b882e8", "name": "Yooji\u2019s Seefeld", "opening_hours": {"open_now": false}, "photos": [{"height": 3545, "html_attributions": ["<a href=\"https://maps.google.com/maps/contrib/118133992487814939263\">Yooji\u2019s Seefeld</a>"], "photo_reference": "CmRaAAAAx2XkVf0zhWP8L_Wc33IVdOKN8yoTjWOeOsxcN1kuo1zr2wVUtZ9Fo7vA4KSMGjivVa6b2Rhriwsz0ftbz7QMBbZxx4CqLOoMXz_mXwFo07IuuF1X_OqN7QC1f3kWUEPZEhBKvk26u-j0pqSa04u6E3DKGhTwrB5IGBnOOTGlWMt83DzpfzrzYw", "width": 5216}], "place_id": "ChIJbWMFPxynmkcRwVmaXDuB7ro", "plus_code": {"compound_code": "9H53+8P Z\u00fcrich, Switzerland", "global_code": "8FVC9H53+8P"}, "price_level": 3, "rating": 4.1, "reference": "ChIJbWMFPxynmkcRwVmaXDuB7ro", "scope": "GOOGLE", "types": ["meal_takeaway", "restaurant", "food", "point_of_interest", "establishment"], "user_ratings_total": 258, "vicinity": "Seefeldstrasse 115, Z\u00fcrich"}, {"geometry": {"location": {"lat": 47.3549641, "lng": 8.5549877}, "viewport": {"northeast": {"lat": 47.3562885802915, "lng": 8.556288580291504}, "southwest": {"lat": 47.3535906197085, "lng": 8.5535906197085}}}, "icon": "https://maps.gstatic.com/mapfiles/place_api/icons/restaurant-71.png", "id": "2a6a442bdf2d8032b0124105f7de982bd8194025", "name": "Riviera", "opening_hours": {"open_now": false}, "photos": [{"height": 3456, "html_attributions": ["<a href=\"https://maps.google.com/maps/contrib/113241837955759146865\">Riviera</a>"], "photo_reference": "CmRaAAAApyDd93ETHhW-BOyrDm7-qRpRKDm0sF7iWF7N2C2zqlSdLppKnDtDDbmAOA0deClYQ0pANukGz4fSKs_NFWDxVoqELAYDl8A6sl94JksCLB-uZ6NdUQ6ORCAkokIqqfMfEhADkiEAXLq-4UHDjz_rV1ZJGhTDnIzZQl1aek_NclzUjl2qHx7EbQ", "width": 4608}], "place_id": "ChIJMcJQ4kWnmkcR3gnGW8HAyos", "plus_code": {"compound_code": "9H33+XX Z\u00fcrich, Switzerland", "global_code": "8FVC9H33+XX"}, "rating": 4.7, "reference": "ChIJMcJQ4kWnmkcR3gnGW8HAyos", "scope": "GOOGLE", "types": ["liquor_store", "restaurant", "food", "point_of_interest", "store", "establishment"], "user_ratings_total": 117, "vicinity": "Dufourstrasse 161, Z\u00fcrich"}, {"geometry": {"location": {"lat": 47.3597555, "lng": 8.5524442}, "viewport": {"northeast": {"lat": 47.3611423802915, "lng": 8.553888980291502}, "southwest": {"lat": 47.3584444197085, "lng": 8.551191019708497}}}, "icon": "https://maps.gstatic.com/mapfiles/place_api/icons/restaurant-71.png", "id": "16ed0d3f5b55730c3a7fe93b99761e66607cd52b", "name": "Fior Di Lago", "opening_hours": {"open_now": false}, "place_id": "ChIJ9y54aU6nmkcR5z9x-twkvTc", "plus_code": {"compound_code": "9H52+WX Z\u00fcrich, Switzerland", "global_code": "8FVC9H52+WX"}, "rating": 2, "reference": "ChIJ9y54aU6nmkcR5z9x-twkvTc", "scope": "GOOGLE", "types": ["restaurant", "food", "point_of_interest", "establishment"], "user_ratings_total": 1, "vicinity": "Seefeldstrasse 96, Z\u00fcrich"}, {"geometry": {"location": {"lat": 47.35978770000001, "lng": 8.5524255}, "viewport": {"northeast": {"lat": 47.3611732802915, "lng": 8.553866880291501}, "southwest": {"lat": 47.3584753197085, "lng": 8.551168919708497}}}, "icon": "https://maps.gstatic.com/mapfiles/place_api/icons/restaurant-71.png", "id": "2a1a1444bf1675517bfcbb56b4f6b4e702ea957c", "name": "Dona Food GmbH", "place_id": "ChIJ9y54aU6nmkcR_vZyt-tDfCQ", "plus_code": {"compound_code": "9H52+WX Z\u00fcrich, Switzerland", "global_code": "8FVC9H52+WX"}, "reference": "ChIJ9y54aU6nmkcR_vZyt-tDfCQ", "scope": "GOOGLE", "types": ["restaurant", "food", "point_of_interest", "establishment"], "vicinity": "Seefeldstrasse 96, Z\u00fcrich"}, {"geometry": {"location": {"lat": 47.3597845, "lng": 8.5525279}, "viewport": {"northeast": {"lat": 47.3611553802915, "lng": 8.553932180291502}, "southwest": {"lat": 47.3584574197085, "lng": 8.551234219708498}}}, "icon": "https://maps.gstatic.com/mapfiles/place_api/icons/restaurant-71.png", "id": "6929a3bf2e74c7e1cab342433217ef79bd41826a", "name": "NA081 Seefeld", "opening_hours": {"open_now": false}, "photos": [{"height": 920, "html_attributions": ["<a href=\"https://maps.google.com/maps/contrib/107248660139179720811\">NA081 Seefeld</a>"], "photo_reference": "CmRaAAAAFwOz0WKM7h6GBb6p-sjpdYDuuX14Oy3FxfbF_NZFIyOIp5Nex5xI3241FdaSBYDDAmxUZslOszx_VAuBMTScxDlTZI6kceIBuTFKzssExd4CDX3ha-BmOvvSzJMyx0lJEhDdZu_0-GlQoH2k44bbD2-SGhTvM97D2MRp_J6w0h17FWS-KTUZqw", "width": 1240}], "place_id": "ChIJnSLPqVenmkcRbLvpOFXkKtE", "plus_code": {"compound_code": "9H53+W2 Z\u00fcrich, Switzerland", "global_code": "8FVC9H53+W2"}, "rating": 4.2, "reference": "ChIJnSLPqVenmkcRbLvpOFXkKtE", "scope": "GOOGLE", "types": ["restaurant", "food", "point_of_interest", "establishment"], "user_ratings_total": 25, "vicinity": "Seefeldstrasse 96, Z\u00fcrich"}, {"geometry": {"location": {"lat": 47.36018300000001, "lng": 8.550787999999999}, "viewport": {"northeast": {"lat": 47.3615027802915, "lng": 8.552057830291501}, "southwest": {"lat": 47.3588048197085, "lng": 8.549359869708496}}}, "icon": "https://maps.gstatic.com/mapfiles/place_api/icons/generic_business-71.png", "id": "a52cd7e1557aad85aca5b786451fc265d9717078", "name": "Valentino", "opening_hours": {"open_now": false}, "photos": [{"height": 3264, "html_attributions": ["<a href=\"https://maps.google.com/maps/contrib/108622887965125760311\">Valentino</a>"], "photo_reference": "CmRaAAAAJ7rqFy-92McryNF1rQ_bJC7G0hUzNL64Vpd0VVSiEX8Cqrk-iXnI6rx8njtXeh-06xuKoA3CGF7NxZgbJNU63-iazcja5OdkbkhgyhsHEO3HIf1zErCIdXVCB_JUbLH6EhBQmBGEgLkuP2MJNectxjmIGhT1V9_cRyWA_hqhdPDn5nvdkcTyLw", "width": 4928}], "place_id": "ChIJN-2xHU6nmkcRSIu-xJZLWLo", "plus_code": {"compound_code": "9H62+38 Z\u00fcrich, Switzerland", "global_code": "8FVC9H62+38"}, "rating": 3.9, "reference": "ChIJN-2xHU6nmkcRSIu-xJZLWLo", "scope": "GOOGLE", "types": ["meal_delivery", "meal_takeaway", "restaurant", "food", "point_of_interest", "store", "establishment"], "user_ratings_total": 60, "vicinity": "Dufourstrasse 81, Z\u00fcrich"}, {"geometry": {"location": {"lat": 47.3603871, "lng": 8.5502167}, "viewport": {"northeast": {"lat": 47.3617647802915, "lng": 8.551647680291502}, "southwest": {"lat": 47.3590668197085, "lng": 8.548949719708498}}}, "icon": "https://maps.gstatic.com/mapfiles/place_api/icons/restaurant-71.png", "id": "739ac6a2010181c45e255b82a536fbcc530355eb", "name": "Ristorante Capri Seefeld Zurigo", "opening_hours": {"open_now": false}, "photos": [{"height": 3024, "html_attributions": ["<a href=\"https://maps.google.com/maps/contrib/108519463306763376961\">Ristorante Capri Seefeld Zurigo</a>"], "photo_reference": "CmRaAAAAl3DecCD5RoUr_gLQhvCT6UQ7PfB2qROsVP5CNcR-EHfIMa633oNS_fCJb5d9nP1puRJx3hf86Hp8P9IzxKcSQQuAW6MvsZA3Cpftklr8kOjbb5c3y7EmwlWm9ONYqXBBEhCBXn76nIQRZfCdlkE5awmiGhQVD0hD7hYHaeGaVoPtXxdWeIMDkg", "width": 4032}], "place_id": "ChIJH5lL-1GnmkcRusJFXgS8qrI", "plus_code": {"compound_code": "9H62+53 Z\u00fcrich, Switzerland", "global_code": "8FVC9H62+53"}, "price_level": 2, "rating": 4.1, "reference": "ChIJH5lL-1GnmkcRusJFXgS8qrI", "scope": "GOOGLE", "types": ["restaurant", "food", "point_of_interest", "establishment"], "user_ratings_total": 100, "vicinity": "Dufourstrasse 80, Z\u00fcrich"}, {"geometry": {"location": {"lat": 47.3582309, "lng": 8.5554013}, "viewport": {"northeast": {"lat": 47.3595659302915, "lng": 8.556695180291502}, "southwest": {"lat": 47.3568679697085, "lng": 8.553997219708497}}}, "icon": "https://maps.gstatic.com/mapfiles/place_api/icons/restaurant-71.png", "id": "97cb2782d3d301fcf0fe867cfc91d39c7cd8b0dd", "name": "Two Spice AG", "opening_hours": {"open_now": false}, "photos": [{"height": 1365, "html_attributions": ["<a href=\"https://maps.google.com/maps/contrib/110400245903220585687\">Two Spice AG</a>"], "photo_reference": "CmRaAAAATrBZhVqOm7SXCavWeInUWwppbE8QJcW_ZMIjWErLrzkRUzfxsK8P6JbJvXZ7tx70tQKQWFgFSXXGR83Fh40NP7OG6YxQOseaLV7oZUWHSFfD7X2WktELyI6iDhkMTiT8EhAoeEJB93WWdXgt5d8MIFjqGhR71uLIYiuQZpch8GEumQLw90wiFQ", "width": 2048}], "place_id": "ChIJqQnH106nmkcRUrKbsSYDn08", "plus_code": {"compound_code": "9H54+75 Z\u00fcrich, Switzerland", "global_code": "8FVC9H54+75"}, "rating": 4.4, "reference": "ChIJqQnH106nmkcRUrKbsSYDn08", "scope": "GOOGLE", "types": ["restaurant", "food", "point_of_interest", "establishment"], "user_ratings_total": 19, "vicinity": "Riesbachstrasse 61, Z\u00fcrich"}, {"geometry": {"location": {"lat": 47.360285, "lng": 8.552158099999998}, "viewport": {"northeast": {"lat": 47.36164713029149, "lng": 8.553541930291502}, "southwest": {"lat": 47.3589491697085, "lng": 8.550843969708497}}}, "icon": "https://maps.gstatic.com/mapfiles/place_api/icons/restaurant-71.png", "id": "19d31eaa59c90f74451cccbb61bcda64578d7a86", "name": "Stripped Pizza", "opening_hours": {"open_now": false}, "photos": [{"height": 616, "html_attributions": ["<a href=\"https://maps.google.com/maps/contrib/109787260631475388129\">Stripped Pizza</a>"], "photo_reference": "CmRaAAAA1-iVCbLmmq9P2zV-1KBQzj_hOWIWkGIK1SDTTV2wLgXLMqVhOFfUgrK75ALX8Xlo5OceADATqrTBqGtm2-H8xzG6DwSCSVxz-IevUZr-WMn6UCpXKv880jO4aOR9ZRRQEhCd3IRTBDIfOf9tltBLmLdPGhRX91ZQJj8Dr08JS-7t-Y4ehrPgcg", "width": 1486}], "place_id": "ChIJ-WSwEk6nmkcRRRTihA_uxhM", "plus_code": {"compound_code": "9H62+4V Z\u00fcrich, Switzerland", "global_code": "8FVC9H62+4V"}, "price_level": 2, "rating": 4.3, "reference": "ChIJ-WSwEk6nmkcRRRTihA_uxhM", "scope": "GOOGLE", "types": ["meal_delivery", "meal_takeaway", "restaurant", "food", "point_of_interest", "establishment"], "user_ratings_total": 412, "vicinity": "Seefeldstrasse 88, Z\u00fcrich"}, {"geometry": {"location": {"lat": 47.35824969999999, "lng": 8.5554933}, "viewport": {"northeast": {"lat": 47.3595734302915, "lng": 8.556742230291503}, "southwest": {"lat": 47.35687546970851, "lng": 8.554044269708498}}}, "icon": "https://maps.gstatic.com/mapfiles/place_api/icons/restaurant-71.png", "id": "e34e7aea59a9abe5be2833259ef8c5b77b3b0291", "name": "H\u00f6schgass Gastro AG", "photos": [{"height": 3024, "html_attributions": ["<a href=\"https://maps.google.com/maps/contrib/106032198756800921491\">Ank Kumar</a>"], "photo_reference": "CmRaAAAApG2fGy4xlu9z5Dm_WL2ERXW30OZ2NYncGtNGJ9tzizWywhPHglCF5mpkinbCYeHJ37TWM32v4q7jMZ25IpaMkido4oTcGYjuzK3rTC1ERywjpviFnOkG44eijXdkZV9QEhBFoD5u9ZF3IPGINfwT7uy9GhT3x2GpsV__ImkEmfapTCB8GGZkNQ", "width": 4032}], "place_id": "ChIJqQnH106nmkcRsFt8N4aZTA8", "plus_code": {"compound_code": "9H54+75 Z\u00fcrich, Switzerland", "global_code": "8FVC9H54+75"}, "rating": 1, "reference": "ChIJqQnH106nmkcRsFt8N4aZTA8", "scope": "GOOGLE", "types": ["restaurant", "food", "point_of_interest", "establishment"], "user_ratings_total": 1, "vicinity": "Riesbachstrasse 61, Z\u00fcrich"}, {"geometry": {"location": {"lat": 47.35824969999999, "lng": 8.5554933}, "viewport": {"northeast": {"lat": 47.3595734302915, "lng": 8.556742230291503}, "southwest": {"lat": 47.35687546970851, "lng": 8.554044269708498}}}, "icon": "https://maps.gstatic.com/mapfiles/place_api/icons/restaurant-71.png", "id": "2ab6ec10995cf912d4fab690f40ff83307fb5bfc", "name": "Nooba AG", "place_id": "ChIJMazY4-KnmkcRL6903ca61C8", "plus_code": {"compound_code": "9H54+75 Z\u00fcrich, Switzerland", "global_code": "8FVC9H54+75"}, "reference": "ChIJMazY4-KnmkcRL6903ca61C8", "scope": "GOOGLE", "types": ["restaurant", "food", "point_of_interest", "establishment"], "vicinity": "Riesbachstrasse 61, Z\u00fcrich"}], "status": "OK"}