{"html_attributions": [], "next_page_token": "CqQCIAEAAEE7jGKfYr2sndJ_1grWsYHJRxuH01m-eu_DHNJlsU7N818BJOjEX5B1bIDSuPdAgnufLDT4f_chz6BsAuniHh6iVCGw-5W1YwvuyC0-H-vZ3NKWWqK8-EQgfj-HxVre1l0wwBPijPH7DldlhqNTvd6wIVJHwdg_mK7XSEIqXmkb4U8XgZUIJQSgocUn5lUBNW4aYFCWilCAgtNwmpBt8E8_5kqaGdAnOjQgNOgye0rurd68KjZyDfxxstfUS3XAzr-NDlxjANaAEYxQCuWj2VSFxl8GdN--lqXbYxaOeodW4UKIfdRvY5c4Xu2qVB56p4sZZVlcYB9iH-R3NuRF4r0g5Iw7opx_QknXH_iN7G5HOAWPUjYV_5I_jv2RYkBBxRIQxxuM38jj-UWHA2ARn4Qa_hoUZTOp3M0DpoxP1vjuRkF8A_ys900", "results": [{"geometry": {"location": {"lat": 47.3632554, "lng": 8.5219842}, "viewport": {"northeast": {"lat": 47.3646189802915, "lng": 8.523445680291502}, "southwest": {"lat": 47.3619210197085, "lng": 8.520747719708497}}}, "icon": "https://maps.gstatic.com/mapfiles/place_api/icons/restaurant-71.png", "id": "9cc4f5b20541c588cfff5c07ce562802c56bb216", "name": "Vereinigung", "opening_hours": {"open_now": false}, "photos": [{"height": 1536, "html_attributions": ["<a href=\"https://maps.google.com/maps/contrib/107220470760954020710\">Vereinigung</a>"], "photo_reference": "CmRaAAAAVIir4cXyEfpqo-wAnYtFOv2qOKR-AdbABYglRE0ZZN49OWqPgeqH9DzQzv9vormeUBf9Usf_T5Fohn4aLzrAgP5SSsUDWfRRS6ZmReKRzxuczMLnX0SGc5L8s2P1rizKEhAsb8wynkdMgmOcQfRlTaPeGhS1Ee6qP8kxZBJHF9Cgl1WXm4wA5g", "width": 2048}], "place_id": "ChIJWcmTsvYJkEcRmvoj7GdJ3ls", "plus_code": {"compound_code": "9G7C+8Q Z\u00fcrich, Switzerland", "global_code": "8FVC9G7C+8Q"}, "price_level": 2, "rating": 4.6, "reference": "ChIJWcmTsvYJkEcRmvoj7GdJ3ls", "scope": "GOOGLE", "types": ["restaurant", "food", "point_of_interest", "establishment"], "user_ratings_total": 126, "vicinity": "Manessestrasse 132, Z\u00fcrich"}, {"geometry": {"location": {"lat": 47.36334050000001, "lng": 8.520592800000001}, "viewport": {"northeast": {"lat": 47.3646583802915, "lng": 8.521949130291501}, "southwest": {"lat": 47.3619604197085, "lng": 8.519251169708497}}}, "icon": "https://maps.gstatic.com/mapfiles/place_api/icons/restaurant-71.png", "id": "aef9de232ce7a8d92f85228dd4b59e031ba606ef", "name": "Grandma Armidas", "opening_hours": {"open_now": false}, "photos": [{"height": 951, "html_attributions": ["<a href=\"https://maps.google.com/maps/contrib/104574714195199458328\">Niklaus Waechter</a>"], "photo_reference": "CmRaAAAALiZm3CnNdztoR-pWpvprr0IG9ppGTldCb9WPtNYJA0PdW3GClsrGlI_IwEfBqhG2ThIebVFNlPt90vQIAN76MLVZporwKmcM6hZPGPeVzGK9VZzctfz0OJaCxNl5xncsEhDEyDlT_XAheO992I8hXsHOGhTxgyuU8c4YufO4hUM6RkA6Ep7QFw", "width": 1280}], "place_id": "ChIJgRy7v-sLkEcR1WGma-nvrJo", "plus_code": {"compound_code": "9G7C+86 Z\u00fcrich, Switzerland", "global_code": "8FVC9G7C+86"}, "rating": 4.9, "reference": "ChIJgRy7v-sLkEcR1WGma-nvrJo", "scope": "GOOGLE", "types": ["restaurant", "food", "point_of_interest", "establishment"], "user_ratings_total": 11, "vicinity": "Eibenstrasse, Z\u00fcrich"}, {"geometry": {"location": {"lat": 47.363547, "lng": 8.520175}, "viewport": {"northeast": {"lat": 47.3648660802915, "lng": 8.521487030291503}, "southwest": {"lat": 47.3621681197085, "lng": 8.518789069708498}}}, "icon": "https://maps.gstatic.com/mapfiles/place_api/icons/generic_business-71.png", "id": "369787f1d9b7b1ae8df36d036c313d98943fdeef", "name": "dieci", "opening_hours": {"open_now": false}, "photos": [{"height": 1920, "html_attributions": ["<a href=\"https://maps.google.com/maps/contrib/104686303862228266805\">dieci</a>"], "photo_reference": "CmRaAAAAuxtvTrR57My313E4Nbic2AsfBUnrBKLxejbR7sYZ5BzH35hIjsjrSqTDdmCVC4HCudDmL8sh5R_ZxXcvj3K5K6bLR1xLrf5O_FrWzHYfytJ_M4IXFWlo21kEmTaFF4BXEhDSu6N6OZCS4iLy3Kkw2apAGhRFaYaMA7JJaPSfUt_qVsXzDjBt_Q", "width": 2880}], "place_id": "ChIJDUQ0CfQJkEcRzKkD__HBLhU", "plus_code": {"compound_code": "9G7C+C3 Z\u00fcrich, Switzerland", "global_code": "8FVC9G7C+C3"}, "rating": 4.3, "reference": "ChIJDUQ0CfQJkEcRzKkD__HBLhU", "scope": "GOOGLE", "types": ["meal_delivery", "meal_takeaway", "restaurant", "food", "point_of_interest", "establishment"], "user_ratings_total": 116, "vicinity": "Eibenstrasse 24, Z\u00fcrich"}, {"geometry": {"location": {"lat": 47.3614115, "lng": 8.5213551}, "viewport": {"northeast": {"lat": 47.36266828029149, "lng": 8.5227917302915}, "southwest": {"lat": 47.3599703197085, "lng": 8.520093769708495}}}, "icon": "https://maps.gstatic.com/mapfiles/place_api/icons/restaurant-71.png", "id": "7fe685752c61efc2b714fd435f3a463d83838761", "name": "Shinsen Take Away&Delivery", "opening_hours": {"open_now": false}, "photos": [{"height": 4000, "html_attributions": ["<a href=\"https://maps.google.com/maps/contrib/102694376139382500764\">Shinsen Take Away&amp;Delivery</a>"], "photo_reference": "CmRaAAAAxr3Z1eje-cJlUdpc9XCCtUKL8u_opsxr76i2EqHA29HNs86L3XV0LSlgzLS4kgRKP1TzyIlMLm7kRleLDWmQU4UNvz3bAqJbX3jCxknZxFdLrmf2b-bh6FYijjUSNG-qEhD9aixthKbqkkmWbnpjJqviGhSNEUTLXP7hQhQOT_poXmEQYEElvg", "width": 6000}], "place_id": "ChIJjZ61cfEJkEcR1NK_nncfDvI", "plus_code": {"compound_code": "9G6C+HG Z\u00fcrich, Switzerland", "global_code": "8FVC9G6C+HG"}, "price_level": 2, "rating": 4.5, "reference": "ChIJjZ61cfEJkEcR1NK_nncfDvI", "scope": "GOOGLE", "types": ["meal_takeaway", "restaurant", "food", "point_of_interest", "establishment"], "user_ratings_total": 270, "vicinity": "Staffelstrasse 8, Z\u00fcrich"}, {"geometry": {"location": {"lat": 47.36412819999999, "lng": 8.520405000000002}, "viewport": {"northeast": {"lat": 47.36545708029149, "lng": 8.521690780291504}, "southwest": {"lat": 47.36275911970849, "lng": 8.5189928197085}}}, "icon": "https://maps.gstatic.com/mapfiles/place_api/icons/restaurant-71.png", "id": "c0d4a36129d0f1d19ffa21202e66b65c61155aa5", "name": "Z\u00fcrich \u00fcetlibergstr30", "photos": [{"height": 1960, "html_attributions": ["<a href=\"https://maps.google.com/maps/contrib/110954391577337594508\">Malek Shaw</a>"], "photo_reference": "CmRaAAAAEDyrrI8I3OCb13feemKTpxXTGMNp_rVDX0qVB5c01OFKaT9Bao5WKrJKrd8yFlecTAElUcD3BmCxS5XPhOUy3np1FgB4GJG4REyf3g0yjjfAvXEi8Eh-U1LFwY9kQM8iEhCeHH7m10oeJGj7IL8UBbeUGhRWU71_mbdGRBBg4KiG4nFUi8gb-w", "width": 4032}], "place_id": "ChIJkc_MP9IJkEcRuo4Ew-s_qhY", "plus_code": {"compound_code": "9G7C+M5 Z\u00fcrich, Switzerland", "global_code": "8FVC9G7C+M5"}, "rating": 5, "reference": "ChIJkc_MP9IJkEcRuo4Ew-s_qhY", "scope": "GOOGLE", "types": ["restaurant", "food", "point_of_interest", "establishment"], "user_ratings_total": 1, "vicinity": "Z\u00fcrich"}, {"geometry": {"location": {"lat": 47.3645728, "lng": 8.520816999999997}, "viewport": {"northeast": {"lat": 47.36589043029149, "lng": 8.5222573302915}, "southwest": {"lat": 47.36319246970849, "lng": 8.519559369708496}}}, "icon": "https://maps.gstatic.com/mapfiles/place_api/icons/restaurant-71.png", "id": "8612c755f4b65f9ebdb1e9a313e93085a29aacfb", "name": "Chez Nhan", "opening_hours": {"open_now": false}, "photos": [{"height": 4032, "html_attributions": ["<a href=\"https://maps.google.com/maps/contrib/115247243286740842210\">Mircea Cimpoi</a>"], "photo_reference": "CmRaAAAA_sAnyS6qn6wAO7YDJJv9thafJPCns-s0m189GXQDhyAg-xK2X4f1R6PuFfI302NooxzQsxI1xLcXgxuOf8o7NJg_JT422NVMLAoq8_6wY14KsostDngW8t7fHyBY0r2BEhA3cPiQMcbkO-xhAqZNY6LiGhShM4jL34p93Q5Zy5Jnab-whHshkw", "width": 3024}], "place_id": "ChIJS13QlR8KkEcRkd1O3n0SRus", "plus_code": {"compound_code": "9G7C+R8 Z\u00fcrich, Switzerland", "global_code": "8FVC9G7C+R8"}, "price_level": 2, "rating": 4.2, "reference": "ChIJS13QlR8KkEcRkd1O3n0SRus", "scope": "GOOGLE", "types": ["restaurant", "food", "point_of_interest", "establishment"], "user_ratings_total": 303, "vicinity": "Uetlibergstrasse 22, Z\u00fcrich"}, {"geometry": {"location": {"lat": 47.3642145, "lng": 8.5204282}, "viewport": {"northeast": {"lat": 47.3655168802915, "lng": 8.521862230291502}, "southwest": {"lat": 47.3628189197085, "lng": 8.519164269708497}}}, "icon": "https://maps.gstatic.com/mapfiles/place_api/icons/restaurant-71.png", "id": "27b96de90442fc1d414a84c1467c8931f466c80d", "name": "Al Fattore", "opening_hours": {"open_now": false}, "photos": [{"height": 2358, "html_attributions": ["<a href=\"https://maps.google.com/maps/contrib/114991824350209704258\">Al Fattore</a>"], "photo_reference": "CmRaAAAAkEXW0BCekWS3P_0cYciLeGxRLzZjvG9Anemol7PySTxzD-K6Bk0fUP_p9X95v2LsBtbnj_UsZIIOMYG6KI06OHDHcyZFJ9UM3j8VN9vOj_NiLluE9gkIQKm0MbTzWWRoEhCbGxPsEZ6BU8dBvJH4AvDsGhQ_imf03iZBRw2xhYZqOAro7bIQ5Q", "width": 3200}], "place_id": "ChIJwVOtHHwJkEcRFF6Z4jfTX8Q", "plus_code": {"compound_code": "9G7C+M5 Z\u00fcrich, Switzerland", "global_code": "8FVC9G7C+M5"}, "rating": 4.1, "reference": "ChIJwVOtHHwJkEcRFF6Z4jfTX8Q", "scope": "GOOGLE", "types": ["restaurant", "food", "point_of_interest", "establishment"], "user_ratings_total": 142, "vicinity": "Uetlibergstrasse 30, Z\u00fcrich"}, {"geometry": {"location": {"lat": 47.3646338, "lng": 8.5208694}, "viewport": {"northeast": {"lat": 47.3659523302915, "lng": 8.522307080291503}, "southwest": {"lat": 47.3632543697085, "lng": 8.519609119708498}}}, "icon": "https://maps.gstatic.com/mapfiles/place_api/icons/restaurant-71.png", "id": "6647323c4cd67ce3105d764037d45873bb2b137f", "name": "Chez Nhan Deli", "opening_hours": {"open_now": false}, "photos": [{"height": 1920, "html_attributions": ["<a href=\"https://maps.google.com/maps/contrib/112060350325285952007\">Lien Nguyen</a>"], "photo_reference": "CmRaAAAAFspa3ETrppIp5VW1jGXqt4mfnnSbbX8OOpmwLrRcLoH2KqDM9Oathxm_Tgktgt4wbQ4qMEnqO3xR5NXQqb2XTkOvdQqsgNajDfxxmAX-dCm_XG_96XXqfdLjzI2Mhr34EhBSKUNFEVyvU2V7GiDNStiRGhQKzNiNYe_kfVq-CtflsFEmqr8O0A", "width": 1920}], "place_id": "ChIJoasrm4sJkEcRZw3EN8xnkYI", "plus_code": {"compound_code": "9G7C+V8 Z\u00fcrich, Switzerland", "global_code": "8FVC9G7C+V8"}, "rating": 4.6, "reference": "ChIJoasrm4sJkEcRZw3EN8xnkYI", "scope": "GOOGLE", "types": ["restaurant", "food", "point_of_interest", "establishment"], "user_ratings_total": 66, "vicinity": "Uetlibergstrasse 22, Z\u00fcrich"}, {"geometry": {"location": {"lat": 47.36397239999999, "lng": 8.5201403}, "viewport": {"northeast": {"lat": 47.36527373029149, "lng": 8.521574680291502}, "southwest": {"lat": 47.36257576970849, "lng": 8.518876719708498}}}, "icon": "https://maps.gstatic.com/mapfiles/place_api/icons/restaurant-71.png", "id": "55e53dc94fad440d841a77c13f8c0558120f4ef9", "name": "Ploy", "opening_hours": {"open_now": false}, "photos": [{"height": 2432, "html_attributions": ["<a href=\"https://maps.google.com/maps/contrib/117112731220568443161\">Honza B\u00edm</a>"], "photo_reference": "CmRaAAAARkbaBqb4ckkLcI5G0jrWl6I5ph1zIgFpPnzwbey5GdDzFW-_SXhOOvCgbkKt-GnqO7Ie5reeFw70OI2rWvoDSzcMqmCzXfqkMjIW3hw4BXFqXVaFbxREM64uGh9aj9mGEhAQS70rBN6c_tM7T-eqVT4JGhRpKl3jOJA9Uh83ZGyJhgngKxoT2A", "width": 3286}], "place_id": "ChIJE1IxEvQJkEcR7xC6i0KaQec", "plus_code": {"compound_code": "9G7C+H3 Z\u00fcrich, Switzerland", "global_code": "8FVC9G7C+H3"}, "price_level": 2, "rating": 4.2, "reference": "ChIJE1IxEvQJkEcR7xC6i0KaQec", "scope": "GOOGLE", "types": ["restaurant", "food", "point_of_interest", "establishment"], "user_ratings_total": 83, "vicinity": "Uetlibergstrasse 38, Z\u00fcrich"}, {"geometry": {"location": {"lat": 47.3617146, "lng": 8.5259049}, "viewport": {"northeast": {"lat": 47.3630266802915, "lng": 8.527312080291503}, "southwest": {"lat": 47.3603287197085, "lng": 8.524614119708499}}}, "icon": "https://maps.gstatic.com/mapfiles/place_api/icons/restaurant-71.png", "id": "450af61b5180f058ac3d387bac9146d15f6435b6", "name": "Allegrotto Pizzakurier", "opening_hours": {"open_now": true}, "photos": [{"height": 3024, "html_attributions": ["<a href=\"https://maps.google.com/maps/contrib/113826339690363627069\">Allegrotto Pizzakurier</a>"], "photo_reference": "CmRaAAAAGz1D0ZvQrFBXexztVKrjc24b61oRq72eRFNRvSY-7E11y5Z7O1BFLy3LImdCDRNTiTFKP-ydNYE7n3h1nuGWx0i7yiZTtxyCRMJj8wUeK4K8kVd1JUnolknW_t7P6_ydEhDLy5SJg5S6eT5sS-PBxSp2GhR3GiLvm-JkuZisXyZp9UNdlgjqhA", "width": 4032}], "place_id": "ChIJU7N0vfAJkEcRLPivdzH2w4Y", "plus_code": {"compound_code": "9G6G+M9 Z\u00fcrich, Switzerland", "global_code": "8FVC9G6G+M9"}, "price_level": 1, "rating": 2.9, "reference": "ChIJU7N0vfAJkEcRLPivdzH2w4Y", "scope": "GOOGLE", "types": ["meal_takeaway", "restaurant", "food", "point_of_interest", "establishment"], "user_ratings_total": 185, "vicinity": "Bederstrasse 102, Z\u00fcrich"}, {"geometry": {"location": {"lat": 47.3648405, "lng": 8.525527700000001}, "viewport": {"northeast": {"lat": 47.3661980302915, "lng": 8.526956230291502}, "southwest": {"lat": 47.3635000697085, "lng": 8.524258269708497}}}, "icon": "https://maps.gstatic.com/mapfiles/place_api/icons/restaurant-71.png", "id": "c1b203e94c654d7026fdab5514e845373cc63143", "name": "NapaGrill", "opening_hours": {"open_now": false}, "photos": [{"height": 1668, "html_attributions": ["<a href=\"https://maps.google.com/maps/contrib/106521224017921857207\">NapaGrill</a>"], "photo_reference": "CmRaAAAANW3z5vnMiAZQlSwoRGDZ1_Aq5cs70NUFKsK2CXDShJYZc8B5SHjeVnGPFQbWubpAYVbfQ1Q-MIYjwF5WvHHYwe88CuCxGIQUt-vjuGvJq7xFFj-XiNy-SEdxujJupSv8EhDWaBhwd8GjniBQMaD0-XlNGhQEAs9IXmkjeAloALvETlAto_c6gw", "width": 2500}], "place_id": "ChIJ36k2EPcJkEcRudYAUIuysuo", "plus_code": {"compound_code": "9G7G+W6 Z\u00fcrich, Switzerland", "global_code": "8FVC9G7G+W6"}, "rating": 4.4, "reference": "ChIJ36k2EPcJkEcRudYAUIuysuo", "scope": "GOOGLE", "types": ["restaurant", "food", "point_of_interest", "establishment"], "user_ratings_total": 440, "vicinity": "Brandschenkestrasse 130, Z\u00fcrich"}, {"geometry": {"location": {"lat": 47.3619122, "lng": 8.526140999999999}, "viewport": {"northeast": {"lat": 47.3632166302915, "lng": 8.5275565302915}, "southwest": {"lat": 47.3605186697085, "lng": 8.524858569708496}}}, "icon": "https://maps.gstatic.com/mapfiles/place_api/icons/restaurant-71.png", "id": "b17f034c41d69e6f40e4a0ae607ef3bad5a13842", "name": "Weisses R\u00f6ssli", "opening_hours": {"open_now": false}, "photos": [{"height": 720, "html_attributions": ["<a href=\"https://maps.google.com/maps/contrib/102543787759908465314\">Weisses R\u00f6ssli</a>"], "photo_reference": "CmRaAAAA-oIfqZEUStNLwqlaPPDyV8EELfYlD4magnirxg8_4qEW4O5ux4jPIVHfSEltdN4o2GlV3nKpJezSpaLIfzQsVexnffn4yxh0qsg5ooZxDubmxWxDuxvQaZpLWoIYMJCZEhCRM8pg-2XsEnoT5IwPKSILGhQzbIBboATTHiT1-UzJpjn7Vdo9wQ", "width": 1080}], "place_id": "ChIJ77wVo_AJkEcR9PPGktVXLgA", "plus_code": {"compound_code": "9G6G+QF Z\u00fcrich, Switzerland", "global_code": "8FVC9G6G+QF"}, "price_level": 3, "rating": 4.7, "reference": "ChIJ77wVo_AJkEcR9PPGktVXLgA", "scope": "GOOGLE", "types": ["restaurant", "food", "point_of_interest", "establishment"], "user_ratings_total": 250, "vicinity": "Bederstrasse 96, Z\u00fcrich"}, {"geometry": {"location": {"lat": 47.3620755, "lng": 8.526278099999999}, "viewport": {"northeast": {"lat": 47.36338318029149, "lng": 8.527724380291504}, "southwest": {"lat": 47.3606852197085, "lng": 8.5250264197085}}}, "icon": "https://maps.gstatic.com/mapfiles/place_api/icons/restaurant-71.png", "id": "b839f15f63e9f613f6b5185ed19f5f3c8b61d090", "name": "Safran", "opening_hours": {"open_now": true}, "photos": [{"height": 2268, "html_attributions": ["<a href=\"https://maps.google.com/maps/contrib/117760650835055451352\">J\u00f3zsef Varga</a>"], "photo_reference": "CmRaAAAA5dUxPM2MO1YVtYehC6OsUlf8R3sxSfQLtvLEtFKZcx3VSrWXzqinN6GSkrd1RJ5lYJhOyo8ch9i2T0XD8U9HzOOzn-BFQ46jwj7WkiPNZRtpiUvB7jO_Wl_IZAxv89fNEhAlQAKY7Ct5mknWvJ40ZYEbGhQPBKKnLqaZXx0B3M4BQ9UDNdH64A", "width": 4032}], "place_id": "ChIJa_8CpfAJkEcR3Au6izjlZNM", "plus_code": {"compound_code": "9G6G+RG Z\u00fcrich, Switzerland", "global_code": "8FVC9G6G+RG"}, "price_level": 1, "rating": 4, "reference": "ChIJa_8CpfAJkEcR3Au6izjlZNM", "scope": "GOOGLE", "types": ["restaurant", "food", "point_of_interest", "establishment"], "user_ratings_total": 146, "vicinity": "Bederstrasse 94, Z\u00fcrich"}, {"geometry": {"location": {"lat": 47.3617571, "lng": 8.5259928}, "viewport": {"northeast": {"lat": 47.36307413029149, "lng": 8.527392180291502}, "southwest": {"lat": 47.3603761697085, "lng": 8.524694219708499}}}, "icon": "https://maps.gstatic.com/mapfiles/place_api/icons/restaurant-71.png", "id": "b64fd297f7185adf2dfcf3dfda1b282de3d91b99", "name": "Pizza King City", "photos": [{"height": 4032, "html_attributions": ["<a href=\"https://maps.google.com/maps/contrib/117610312976370869231\">Mateusz Chadrysiak</a>"], "photo_reference": "CmRaAAAADVsAbTgYnhyw7BBeBTB5UEtfw8gPsPW01q9gATi1zaA2aUoSB9XmkBzPohlHC3AojWmdeFaeaQSCqf1jol7TX1YK1MgpDlu-OkWGq4wDuKP7mFTUXHmb3g3VCf3SSVitEhCaWPS4qe03CQNafxipcxnfGhQterIZiEVNfrPwIEj8IBzSl7l7ZA", "width": 3024}], "place_id": "ChIJXVBcvfAJkEcRd3accE6eI7U", "plus_code": {"compound_code": "9G6G+P9 Z\u00fcrich, Switzerland", "global_code": "8FVC9G6G+P9"}, "rating": 1.7, "reference": "ChIJXVBcvfAJkEcRd3accE6eI7U", "scope": "GOOGLE", "types": ["restaurant", "food", "point_of_interest", "establishment"], "user_ratings_total": 30, "vicinity": "Bederstrasse 102, Z\u00fcrich"}, {"geometry": {"location": {"lat": 47.362445, "lng": 8.526660999999999}, "viewport": {"northeast": {"lat": 47.36379133029151, "lng": 8.527915480291503}, "southwest": {"lat": 47.36109336970851, "lng": 8.525217519708498}}}, "icon": "https://maps.gstatic.com/mapfiles/place_api/icons/restaurant-71.png", "id": "1fdbe8e464218f785ee8646c0ba99f2793adfa5c", "name": "Bederhof", "opening_hours": {"open_now": false}, "photos": [{"height": 2988, "html_attributions": ["<a href=\"https://maps.google.com/maps/contrib/100558627756940465928\">A. Isenring</a>"], "photo_reference": "CmRaAAAAU_Z3dSjaVksXrr1nU3KaYOu_8i8mQdfqFm4iEyT_uCzh9444JMgcQRYkOvB1J7msij6ey5jvE9LItqx--1sSf9a3yPaBAx2JtRMdZPdPzz1h5ch2WFsCBGgNo_773sAoEhCXzDDrE5Y6qqfu0kDTgwK_GhThuSPcqfykXJb3oN_e_aPMLl1jtw", "width": 5312}], "place_id": "ChIJ_6GrrvAJkEcRbEdbC0ig34I", "plus_code": {"compound_code": "9G6G+XM Z\u00fcrich, Switzerland", "global_code": "8FVC9G6G+XM"}, "price_level": 2, "rating": 4.3, "reference": "ChIJ_6GrrvAJkEcRbEdbC0ig34I", "scope": "GOOGLE", "types": ["restaurant", "food", "point_of_interest", "establishment"], "user_ratings_total": 413, "vicinity": "Brandschenkestrasse 177, Z\u00fcrich"}, {"geometry": {"location": {"lat": 47.3651784, "lng": 8.521229}, "viewport": {"northeast": {"lat": 47.3664821302915, "lng": 8.522563280291502}, "southwest": {"lat": 47.3637841697085, "lng": 8.519865319708497}}}, "icon": "https://maps.gstatic.com/mapfiles/place_api/icons/restaurant-71.png", "id": "29afaea147a8d821df7b848fcf8b01f422e18059", "name": "Maison Manesse", "opening_hours": {"open_now": false}, "photos": [{"height": 2000, "html_attributions": ["<a href=\"https://maps.google.com/maps/contrib/101155507258496657013\">Maison Manesse</a>"], "photo_reference": "CmRaAAAA0kl4qyv_z4WE7kRT-aTZKLYYRHGHv--LYb0-Yn_6lME3dE3AomKQbawl6Y8jyYd3JDVD3Ml9Aj5C6H4exkuci1W4BK_8Vb3EtD4Gvv1qmwlzLAcgYww_lLpPnCCa6rsAEhCk_dbqpEA2DIWDp3U5D1hbGhQhkxYxTGyyJ5YwTk76SI9yT3ByyA", "width": 3000}], "place_id": "ChIJqR0NL_QJkEcRHpMsDSekWho", "plus_code": {"compound_code": "9G8C+3F Z\u00fcrich, Switzerland", "global_code": "8FVC9G8C+3F"}, "price_level": 4, "rating": 4.7, "reference": "ChIJqR0NL_QJkEcRHpMsDSekWho", "scope": "GOOGLE", "types": ["restaurant", "food", "point_of_interest", "establishment"], "user_ratings_total": 352, "vicinity": "Hopfenstrasse 2, Z\u00fcrich"}, {"geometry": {"location": {"lat": 47.36147989999999, "lng": 8.5260523}, "viewport": {"northeast": {"lat": 47.36287173029149, "lng": 8.527333730291502}, "southwest": {"lat": 47.3601737697085, "lng": 8.524635769708498}}}, "icon": "https://maps.gstatic.com/mapfiles/place_api/icons/restaurant-71.png", "id": "ed6f3d3dc042568d85a6393acb3a2a61d75b9b4e", "name": "99", "opening_hours": {"open_now": false}, "photos": [{"height": 612, "html_attributions": ["<a href=\"https://maps.google.com/maps/contrib/109730603944758023567\">Philipp Frauenfelder</a>"], "photo_reference": "CmRaAAAA7hv9BdgyA8WaMZBBBh6wTkM3JcNfic0V60p3wiRKzg9F6JXzpYnp0cgFn9uG67qcWkCoVpK7glKYF-v4A0aU1Ls1b0X6l2We16WKj3l5Yq-wXKssyCD1I4Kf8QGJKKInEhDrZin6tUnUE0jh6g-MYyX5GhQWDiOFcxv5yX1yP0psPizYbfmOcg", "width": 816}], "place_id": "ChIJE-9umPAJkEcRRMvc7CYKRcM", "plus_code": {"compound_code": "9G6G+HC Z\u00fcrich, Switzerland", "global_code": "8FVC9G6G+HC"}, "price_level": 2, "rating": 3.9, "reference": "ChIJE-9umPAJkEcRRMvc7CYKRcM", "scope": "GOOGLE", "types": ["cafe", "restaurant", "food", "point_of_interest", "establishment"], "user_ratings_total": 163, "vicinity": "Bederstrasse 99, Z\u00fcrich"}, {"geometry": {"location": {"lat": 47.3617891, "lng": 8.526573800000001}, "viewport": {"northeast": {"lat": 47.3631369302915, "lng": 8.5278857302915}, "southwest": {"lat": 47.3604389697085, "lng": 8.525187769708495}}}, "icon": "https://maps.gstatic.com/mapfiles/place_api/icons/restaurant-71.png", "id": "204d5ebe095f8e39f69d45a6a161174788974291", "name": "Lotusgarden", "opening_hours": {"open_now": false}, "photos": [{"height": 1908, "html_attributions": ["<a href=\"https://maps.google.com/maps/contrib/109774227660334694315\">simon chang</a>"], "photo_reference": "CmRaAAAATJecgkWLkkls7_iaHlYWCnAQernLcnsjR-Db0Q8ChJEZo_NVZEtmVZILPQgFjnTSoiymr_NvTsVcDUReumI4EvmBOKXxID7tA6t2w24hPkZo0siP0UeUlDgx2xQepU95EhBgwudPScm-2SKl1kxdABr_GhTnISPtDAWehQSjw4Yvaq_N1MxBrg", "width": 4032}], "place_id": "ChIJd8oVofAJkEcRf7LW92O-8vw", "plus_code": {"compound_code": "9G6G+PJ Z\u00fcrich, Switzerland", "global_code": "8FVC9G6G+PJ"}, "price_level": 2, "rating": 4.5, "reference": "ChIJd8oVofAJkEcRf7LW92O-8vw", "scope": "GOOGLE", "types": ["restaurant", "food", "point_of_interest", "establishment"], "user_ratings_total": 175, "vicinity": "Waffenplatzstrasse 1, Z\u00fcrich"}, {"geometry": {"location": {"lat": 47.3615548, "lng": 8.5266124}, "viewport": {"northeast": {"lat": 47.3629005302915, "lng": 8.527898830291502}, "southwest": {"lat": 47.3602025697085, "lng": 8.525200869708497}}}, "icon": "https://maps.gstatic.com/mapfiles/place_api/icons/cafe-71.png", "id": "10cc5c967f63ac5f70f5bc92c134777df4c20f45", "name": "Poushe", "opening_hours": {"open_now": false}, "photos": [{"height": 2160, "html_attributions": ["<a href=\"https://maps.google.com/maps/contrib/105311743812948299808\">Joanna Garbacik</a>"], "photo_reference": "CmRaAAAAZm3dEL137ZPdv_tX0crhRaZH-t2RrPd7fOLdWbCvCauz7Y1DZR8NtHslmtvsVAXUt8c3_taoBdyLpue2TvZoiUCiQoH0NOCQ0rG7OMAcHbY436UbOUJsW3yGidIvLBruEhCnLOcGcnJshc__AfqkRwu7GhSxHbjJjFFdAun4IVsXMKA7yGIsWw", "width": 3840}], "place_id": "ChIJlycCofAJkEcRU_ra7UW-wno", "plus_code": {"compound_code": "9G6G+JJ Z\u00fcrich, Switzerland", "global_code": "8FVC9G6G+JJ"}, "rating": 4.2, "reference": "ChIJlycCofAJkEcRU_ra7UW-wno", "scope": "GOOGLE", "types": ["cafe", "bakery", "restaurant", "food", "point_of_interest", "store", "establishment"], "user_ratings_total": 119, "vicinity": "Waffenplatzstrasse 5, Z\u00fcrich"}, {"geometry": {"location": {"lat": 47.3626328, "lng": 8.5191097}, "viewport": {"northeast": {"lat": 47.3640287802915, "lng": 8.520497480291503}, "southwest": {"lat": 47.36133081970851, "lng": 8.517799519708499}}}, "icon": "https://maps.gstatic.com/mapfiles/place_api/icons/restaurant-71.png", "id": "743a407480c3be4972d83699d74f4cdc2a544605", "name": "Mezzo", "opening_hours": {"open_now": false}, "photos": [{"height": 3024, "html_attributions": ["<a href=\"https://maps.google.com/maps/contrib/101663858170805496915\">Michel Latch</a>"], "photo_reference": "CmRaAAAAbz1-5B1cQVJNb7fY2aaHyPvVJLU8qnuMGUP7WnSVTz6G5qL_e9sAkjVOEOjUxaFTyUUKz5AQlul1CUEeXxO_1Z0WpKsebdsibTT3URL10KkpY-WdO0pRyALdQ4_Aapn3EhB4FTknsmum3SPVbp4_iFEvGhTNBxV1w1mjf15V2X4-ZLcuiqpHPw", "width": 4032}], "place_id": "ChIJy4IRk_MJkEcRpNkRMhEPWJ4", "plus_code": {"compound_code": "9G79+3J Z\u00fcrich, Switzerland", "global_code": "8FVC9G79+3J"}, "price_level": 2, "rating": 4.2, "reference": "ChIJy4IRk_MJkEcRpNkRMhEPWJ4", "scope": "GOOGLE", "types": ["cafe", "bar", "restaurant", "food", "point_of_interest", "establishment"], "user_ratings_total": 274, "vicinity": "Eichstrasse 29, Z\u00fcrich"}], "status": "OK"}