{"html_attributions": [], "next_page_token": "CqQCIAEAAPxOmaKaCb2qSKEdVar6dak1W8Kxhr1ZGiRoEcEXgVLJHujWwpIl6tIehwIIC1nnFeEnyDR882knwjeSlhEVcnuFFiGVs6XWWvyv4eHQJMR8nBjV23g6_1kH1cU6WZTCmfX4XgB6fnUzWc6O3DGqLf3M1xV06M2lxfvnM4-I7HOJ-DV3iiNs1poitqNrNhf3RW2nShxDuZtitjYYK-JSidItJrT9iI34pusVIPOESP9dCT4rQevouejInw-tXHnd5RV3CYoaHogfdxyXS1BUnLGRJa6FpHb6jJo3S30tXQSmmOYJLcYsk8Fea4kcWzwLfQnnkabFSgENVvenCmUjh8V6pqEitnmZxeDtg876D7UPJPcCS2xvhxAaVNrxark5pRIQkov7_sp4cH5RVAbycl46TRoUaRtuajdWa0Ar2QU6C47ZWakqtfI", "results": [{"geometry": {"location": {"lat": 47.3832132, "lng": 8.535561}, "viewport": {"northeast": {"lat": 47.3844604302915, "lng": 8.536744680291502}, "southwest": {"lat": 47.3817624697085, "lng": 8.534046719708497}}}, "icon": "https://maps.gstatic.com/mapfiles/place_api/icons/restaurant-71.png", "id": "3ac4a0177119539684dc962b3001eab08d444e65", "name": "Restaurant TBZ Technolino", "place_id": "ChIJJ5zJvg0KkEcRDlklTHswEKU", "plus_code": {"compound_code": "9GMP+76 Z\u00fcrich, Switzerland", "global_code": "8FVC9GMP+76"}, "rating": 4, "reference": "ChIJJ5zJvg0KkEcRDlklTHswEKU", "scope": "GOOGLE", "types": ["restaurant", "food", "point_of_interest", "establishment"], "user_ratings_total": 1, "vicinity": "Ausstellungsstrasse 70, Z\u00fcrich"}, {"geometry": {"location": {"lat": 47.3822222, "lng": 8.5358333}, "viewport": {"northeast": {"lat": 47.3835953302915, "lng": 8.537151480291502}, "southwest": {"lat": 47.3808973697085, "lng": 8.534453519708498}}}, "icon": "https://maps.gstatic.com/mapfiles/place_api/icons/restaurant-71.png", "id": "ace82bd237481ec5822e3dadf35097fb72143e0a", "name": "Il Ristorantino", "opening_hours": {"open_now": false}, "photos": [{"height": 3024, "html_attributions": ["<a href=\"https://maps.google.com/maps/contrib/116933274869069685775\">Rocco Bevilacqua</a>"], "photo_reference": "CmRaAAAAf8k8rSDycAUCy-OkfFaYYuhVqg03j4Z63zw3DzIGJXd1-7kGcLw_mXibbl7T86s7NzNFlOG9VAtuj8lJB7I35o7lLppTDnsbwd4D1orJDbzmkfj9iPX8dBP0VJIrZN4oEhAFuejUuiCaM0537XOXMc_AGhQ_VMX7gVj0fZ8WvSiOkrKItI1YKA", "width": 4032}], "place_id": "ChIJseCd0w0KkEcRvu1wB6A6KHM", "plus_code": {"compound_code": "9GJP+V8 Z\u00fcrich, Switzerland", "global_code": "8FVC9GJP+V8"}, "price_level": 2, "rating": 4, "reference": "ChIJseCd0w0KkEcRvu1wB6A6KHM", "scope": "GOOGLE", "types": ["restaurant", "food", "point_of_interest", "establishment"], "user_ratings_total": 192, "vicinity": "Baumgasse 10, Z\u00fcrich"}, {"geometry": {"location": {"lat": 47.3819474, "lng": 8.535482499999999}, "viewport": {"northeast": {"lat": 47.3832696302915, "lng": 8.536787030291501}, "southwest": {"lat": 47.3805716697085, "lng": 8.534089069708497}}}, "icon": "https://maps.gstatic.com/mapfiles/place_api/icons/restaurant-71.png", "id": "29990f7472836e8dea76fe8a215eb523530bd6c8", "name": "New Point", "opening_hours": {"open_now": false}, "photos": [{"height": 720, "html_attributions": ["<a href=\"https://maps.google.com/maps/contrib/103984224866169674951\">Subramanian V</a>"], "photo_reference": "CmRaAAAA76xVf2etVLZ7FePtg17tJxu1aqX7UoLKw-o5XBtXoK3z-t7VNWYy3pUyWIosgV6dumbikfB8a_3kuh_fDqp7N83jSloS4C8RnpacaII8aeMafuR5QehKktFMvvJojAVREhAFU-B_8B8JvfpaX37vsf8YGhRRqjQlN8rR5P-k7Illsss93XypIQ", "width": 1280}], "place_id": "ChIJG-p11Q0KkEcRKnUcF2vpp6Q", "plus_code": {"compound_code": "9GJP+Q5 Z\u00fcrich, Switzerland", "global_code": "8FVC9GJP+Q5"}, "price_level": 2, "rating": 3.9, "reference": "ChIJG-p11Q0KkEcRKnUcF2vpp6Q", "scope": "GOOGLE", "types": ["restaurant", "food", "point_of_interest", "establishment"], "user_ratings_total": 259, "vicinity": "Limmatstrasse 50, Z\u00fcrich"}, {"geometry": {"location": {"lat": 47.3851192, "lng": 8.5362321}, "viewport": {"northeast": {"lat": 47.38643738029149, "lng": 8.537542930291501}, "southwest": {"lat": 47.3837394197085, "lng": 8.534844969708496}}}, "icon": "https://maps.gstatic.com/mapfiles/place_api/icons/bar-71.png", "id": "70c348e1678c3240d0fd053f1f98dac4541160cc", "name": "Primitivo", "opening_hours": {"open_now": false}, "photos": [{"height": 1063, "html_attributions": ["<a href=\"https://maps.google.com/maps/contrib/111469739354697594312\">Andrew Lyons</a>"], "photo_reference": "CmRaAAAArary5juva5E-Hp3RpMwfs_Gq-9q0ImXF9bB42VB4gTKzjPeNACjXf8jsZdAykdYILfRRIJMnt__j9KlR2EDvNr51gwiykER3mqDxaAerGdIVCYFWYCnq9NHqkH7Scq6TEhDsbbgBG4ZDRC6hsiVreFopGhRnWsAIwQkoDfFNEIg41hzeKTh3eQ", "width": 1600}], "place_id": "ChIJM_9HGg0KkEcRCIZIk2KPNQw", "plus_code": {"compound_code": "9GPP+2F Z\u00fcrich, Switzerland", "global_code": "8FVC9GPP+2F"}, "price_level": 2, "rating": 4.4, "reference": "ChIJM_9HGg0KkEcRCIZIk2KPNQw", "scope": "GOOGLE", "types": ["bar", "restaurant", "food", "point_of_interest", "establishment"], "user_ratings_total": 292, "vicinity": "Kloster Fahr-Weg, Z\u00fcrich"}, {"geometry": {"location": {"lat": 47.38331749999999, "lng": 8.5393659}, "viewport": {"northeast": {"lat": 47.3847268802915, "lng": 8.540793230291502}, "southwest": {"lat": 47.3820289197085, "lng": 8.538095269708498}}}, "icon": "https://maps.gstatic.com/mapfiles/place_api/icons/restaurant-71.png", "id": "8c66f5cec2e6a845aa2ce244fb75a772be812ee7", "name": "Chuchi am Wasser", "opening_hours": {"open_now": false}, "photos": [{"height": 3024, "html_attributions": ["<a href=\"https://maps.google.com/maps/contrib/105640923921619132735\">Josh Bryan</a>"], "photo_reference": "CmRaAAAA_V2cJA3-wsfwNdlkhdSGks1w9lh8EzGUjdghi62cLr8VwPcazvxeRRogFWBc8Z58W4XxnyA3rl9n90pFvlhlfscL9_i8uomQ8V_KxDYmrkQFMd7Q7_bEqUANULDEtinOEhAvzBti9IdHE_WHxFVHnTsKGhSbjDpK7XS-jg8b_FFQzbliVoP54w", "width": 4032}], "place_id": "ChIJP_cBiAsKkEcRZjHiBwOaIDQ", "plus_code": {"compound_code": "9GMQ+8P Z\u00fcrich, Switzerland", "global_code": "8FVC9GMQ+8P"}, "price_level": 2, "rating": 4.2, "reference": "ChIJP_cBiAsKkEcRZjHiBwOaIDQ", "scope": "GOOGLE", "types": ["restaurant", "food", "point_of_interest", "establishment"], "user_ratings_total": 344, "vicinity": "Wasserwerkstrasse 21, Z\u00fcrich"}, {"geometry": {"location": {"lat": 47.38147379999999, "lng": 8.535945}, "viewport": {"northeast": {"lat": 47.3828000802915, "lng": 8.537326230291502}, "southwest": {"lat": 47.3801021197085, "lng": 8.534628269708497}}}, "icon": "https://maps.gstatic.com/mapfiles/place_api/icons/restaurant-71.png", "id": "2a18165a4d53be7d3738df1b6e2d1453638f6384", "name": "Zurich", "place_id": "ChIJOdov8zQLkEcR7npl0kw4c4E", "plus_code": {"compound_code": "9GJP+H9 Z\u00fcrich, Switzerland", "global_code": "8FVC9GJP+H9"}, "reference": "ChIJOdov8zQLkEcR7npl0kw4c4E", "scope": "GOOGLE", "types": ["restaurant", "food", "point_of_interest", "establishment"], "vicinity": "Hafnerstrasse, Z\u00fcrich"}, {"geometry": {"location": {"lat": 47.3833044, "lng": 8.539387200000002}, "viewport": {"northeast": {"lat": 47.3847139302915, "lng": 8.540814680291502}, "southwest": {"lat": 47.3820159697085, "lng": 8.538116719708498}}}, "icon": "https://maps.gstatic.com/mapfiles/place_api/icons/restaurant-71.png", "id": "a3c40a9f729374d37d72905548ea5fc1a3095c4b", "name": "AMINO", "place_id": "ChIJnV-_ASkLkEcR4cIKd7DwPOY", "plus_code": {"compound_code": "9GMQ+8Q Z\u00fcrich, Switzerland", "global_code": "8FVC9GMQ+8Q"}, "reference": "ChIJnV-_ASkLkEcR4cIKd7DwPOY", "scope": "GOOGLE", "types": ["restaurant", "food", "point_of_interest", "establishment"], "vicinity": "Wasserwerkstrasse 21, Z\u00fcrich"}, {"geometry": {"location": {"lat": 47.3813061, "lng": 8.537367}, "viewport": {"northeast": {"lat": 47.3826242302915, "lng": 8.5386518802915}, "southwest": {"lat": 47.37992626970851, "lng": 8.535953919708495}}}, "icon": "https://maps.gstatic.com/mapfiles/place_api/icons/restaurant-71.png", "id": "b30dadbd6d4bb33fd6d76246db86004c3bbde315", "name": "Kebab inbis", "opening_hours": {"open_now": false}, "place_id": "ChIJO4dPog4KkEcRg_10WeNFv4M", "plus_code": {"compound_code": "9GJP+GW Z\u00fcrich, Switzerland", "global_code": "8FVC9GJP+GW"}, "rating": 2.9, "reference": "ChIJO4dPog4KkEcRg_10WeNFv4M", "scope": "GOOGLE", "types": ["restaurant", "food", "point_of_interest", "establishment"], "user_ratings_total": 13, "vicinity": "Gewerbeschule 8005, Z\u00fcrich"}, {"geometry": {"location": {"lat": 47.3832268, "lng": 8.533197300000001}, "viewport": {"northeast": {"lat": 47.38461358029149, "lng": 8.534493730291503}, "southwest": {"lat": 47.3819156197085, "lng": 8.531795769708499}}}, "icon": "https://maps.gstatic.com/mapfiles/place_api/icons/restaurant-71.png", "id": "9fddd6d613a5081244f782dbf001973bd430a1cb", "name": "Urban Fork", "opening_hours": {"open_now": false}, "photos": [{"height": 2584, "html_attributions": ["<a href=\"https://maps.google.com/maps/contrib/107707820733764927640\">Urban Fork</a>"], "photo_reference": "CmRaAAAAbquBZv80co8nrGpa0cfTYGZ1faQRMzw5drCGGnR-cPB2AnzLV-baGsq3ORfU58yo9uVupGzjInHOdcMQLUFbr9Wlk3vV2gh96636RnddNSGv5qxKKQYYSyj06x374rLPEhBu5Ypz5AHCq2-9JDMjYn6fGhQVnGvkUIc6nDwGWBIi0DIiRfrEjw", "width": 4592}], "place_id": "ChIJVzxX_XULkEcRmFBi4UszjcY", "plus_code": {"compound_code": "9GMM+77 Z\u00fcrich, Switzerland", "global_code": "8FVC9GMM+77"}, "rating": 4.5, "reference": "ChIJVzxX_XULkEcRmFBi4UszjcY", "scope": "GOOGLE", "types": ["restaurant", "food", "point_of_interest", "establishment"], "user_ratings_total": 147, "vicinity": "Ackerstrasse 56, Z\u00fcrich"}, {"geometry": {"location": {"lat": 47.3820845, "lng": 8.5336719}, "viewport": {"northeast": {"lat": 47.38338313029151, "lng": 8.5350880302915}, "southwest": {"lat": 47.38068516970851, "lng": 8.532390069708496}}}, "icon": "https://maps.gstatic.com/mapfiles/place_api/icons/restaurant-71.png", "id": "abdab7889654018665d24e483f10b92ff6bef5de", "name": "Pinatubo", "photos": [{"height": 3024, "html_attributions": ["<a href=\"https://maps.google.com/maps/contrib/105308447318566653776\">Alexander Rupp</a>"], "photo_reference": "CmRaAAAACjDqUhMxH-gGCE5JTR3vR42HfXLIiKnS-1nkL9lLy1Fo2dQ5V4eyL_eyQnQCG4WLTQg5D7PV50dQjHjbmJFNmXNq4kHiTO46L6UMPntEpcz-JzlvFUooi2Wd07Nl7e13EhCWAhqCA5dZPEwA4lrP77rMGhR2WCQzlDjJmOBtToikBMgAJszhrA", "width": 4032}], "place_id": "ChIJb2-cSEMLkEcRGyAxH837Px0", "plus_code": {"compound_code": "9GJM+RF Z\u00fcrich, Switzerland", "global_code": "8FVC9GJM+RF"}, "rating": 3.7, "reference": "ChIJb2-cSEMLkEcRGyAxH837Px0", "scope": "GOOGLE", "types": ["restaurant", "food", "point_of_interest", "establishment"], "user_ratings_total": 14, "vicinity": "Klingenstrasse 33, Z\u00fcrich"}, {"geometry": {"location": {"lat": 47.3818782, "lng": 8.533801900000002}, "viewport": {"northeast": {"lat": 47.3832555302915, "lng": 8.535113080291504}, "southwest": {"lat": 47.3805575697085, "lng": 8.5324151197085}}}, "icon": "https://maps.gstatic.com/mapfiles/place_api/icons/restaurant-71.png", "id": "4b5e7a135608f0e7899a292d706c34ac3211114f", "name": "Uncle 7 - \u4e03\u53d4 \u8336\u9910\u5385", "opening_hours": {"open_now": false}, "photos": [{"height": 960, "html_attributions": ["<a href=\"https://maps.google.com/maps/contrib/114464010837672236867\">Uncle 7 - \u4e03\u53d4 \u8336\u9910\u5385</a>"], "photo_reference": "CmRaAAAAdItFVrlaWCtoS_YOOFra_0Vx7CFgZXE3-2vghAnh95TAC4KxiohVN5MR3HLW3IpYJRmTqvRM294szBm6o0W1ntVSJlWqMnNkbejLb2oVrdU5CUoxb9zS95TnZ0TLEGbfEhA5mugznk5Mg_kT65mNBJHVGhTOIkftnzgi7i4ZzRjbirUiVvwovA", "width": 720}], "place_id": "ChIJJRX_CQ4KkEcRMtTp-6KcKpU", "plus_code": {"compound_code": "9GJM+QG Z\u00fcrich, Switzerland", "global_code": "8FVC9GJM+QG"}, "rating": 4.3, "reference": "ChIJJRX_CQ4KkEcRMtTp-6KcKpU", "scope": "GOOGLE", "types": ["restaurant", "food", "point_of_interest", "establishment"], "user_ratings_total": 200, "vicinity": "Klingenstrasse 34, Z\u00fcrich"}, {"geometry": {"location": {"lat": 47.3820024, "lng": 8.5336248}, "viewport": {"northeast": {"lat": 47.3833156802915, "lng": 8.535021380291502}, "southwest": {"lat": 47.3806177197085, "lng": 8.532323419708497}}}, "icon": "https://maps.gstatic.com/mapfiles/place_api/icons/restaurant-71.png", "id": "2df1c024d74f27e9b677e523b3a200095a12cb1e", "name": "Vulkan", "opening_hours": {"open_now": false}, "photos": [{"height": 1363, "html_attributions": ["<a href=\"https://maps.google.com/maps/contrib/101166873252236549749\">Vulkan</a>"], "photo_reference": "CmRaAAAAhh7UO8G8xlwZiUQUvC5mEPUtsI-7Lrwy44GWOtli2T5b-2lSbKzIDiok8HsmFM2dwLbm6cehxGImPXUxaUJmfnv3KVYOUMR6wrkw-rO7YfsYWe_3DgocCdUYQNX0cj49EhB1Dn_O2NNO4flNmLh8kaNCGhRbsxq1dMU0xZ4P_lY_oByi1Cm7bQ", "width": 2048}], "place_id": "ChIJYyu-4g0KkEcRg0hosH189t8", "plus_code": {"compound_code": "9GJM+RC Z\u00fcrich, Switzerland", "global_code": "8FVC9GJM+RC"}, "price_level": 2, "rating": 4.1, "reference": "ChIJYyu-4g0KkEcRg0hosH189t8", "scope": "GOOGLE", "types": ["restaurant", "food", "point_of_interest", "establishment"], "user_ratings_total": 459, "vicinity": "Klingenstrasse 33, Z\u00fcrich"}, {"geometry": {"location": {"lat": 47.38308170000001, "lng": 8.5329921}, "viewport": {"northeast": {"lat": 47.3844732302915, "lng": 8.534283280291502}, "southwest": {"lat": 47.3817752697085, "lng": 8.531585319708498}}}, "icon": "https://maps.gstatic.com/mapfiles/place_api/icons/restaurant-71.png", "id": "72c0f8b81b17ee94e3b4f21092f766a99d876134", "name": "Himalaya", "opening_hours": {"open_now": false}, "photos": [{"height": 416, "html_attributions": ["<a href=\"https://maps.google.com/maps/contrib/112700800977927813982\">Restaurant Himalaya</a>"], "photo_reference": "CmRaAAAA1SFTzuYCYqcRadL7vdtqSSTQ30WlSLS_EbH3zPmUt1hJhWR1xQBuljqQphmaCeCqCGehPRgt8ptYJp1wrNG-g8o-wWO4vRWdbPxk0RRy5Zlb4V5KGPZ5VzyOuD-ZVhK_EhCWwKQKGhDLtg5bwOhy214PGhShz3U8NMpQszzVhI06kQHptwXtWw", "width": 770}], "place_id": "ChIJh-yqCxIKkEcRyW0VJFfxp2o", "plus_code": {"compound_code": "9GMM+65 Z\u00fcrich, Switzerland", "global_code": "8FVC9GMM+65"}, "price_level": 1, "rating": 4.4, "reference": "ChIJh-yqCxIKkEcRyW0VJFfxp2o", "scope": "GOOGLE", "types": ["restaurant", "food", "point_of_interest", "establishment"], "user_ratings_total": 124, "vicinity": "Ackerstrasse 52, Z\u00fcrich"}, {"geometry": {"location": {"lat": 47.3810021, "lng": 8.535402999999999}, "viewport": {"northeast": {"lat": 47.38231423029149, "lng": 8.536706980291502}, "southwest": {"lat": 47.37961626970849, "lng": 8.534009019708497}}}, "icon": "https://maps.gstatic.com/mapfiles/place_api/icons/restaurant-71.png", "id": "723c46c25dc4932ed46a62ab2d737d67cbe124f9", "name": "il bistr\u00f2", "opening_hours": {"open_now": false}, "photos": [{"height": 2448, "html_attributions": ["<a href=\"https://maps.google.com/maps/contrib/109060327000002961644\">il bistr\u00f2</a>"], "photo_reference": "CmRZAAAA8_qqLOXo2eV_-2l8JpnsmZ1_0LsKRKLXrfdDBTSVvH4CTNciUALFKG6tnMxhvSiqG9xTCYWi6XRkCp_AyiIon4dOd_qVStLP3OH-hDzx_yX6d79fVwbKrhYzIhstek-JEhDnyrusHMpRZ9wFIcZFSQfJGhSxSpf_WJCk8E-zD3h5qJ1Ha6k6Pg", "width": 3264}], "place_id": "ChIJF_XLYw4KkEcR5P26vUa7I7E", "plus_code": {"compound_code": "9GJP+C5 Z\u00fcrich, Switzerland", "global_code": "8FVC9GJP+C5"}, "rating": 4.5, "reference": "ChIJF_XLYw4KkEcR5P26vUa7I7E", "scope": "GOOGLE", "types": ["cafe", "restaurant", "food", "point_of_interest", "store", "establishment"], "user_ratings_total": 73, "vicinity": "Konradstrasse 40, Z\u00fcrich"}, {"geometry": {"location": {"lat": 47.3817323, "lng": 8.5336787}, "viewport": {"northeast": {"lat": 47.38311823029149, "lng": 8.535072530291503}, "southwest": {"lat": 47.38042026970849, "lng": 8.532374569708498}}}, "icon": "https://maps.gstatic.com/mapfiles/place_api/icons/restaurant-71.png", "id": "520a1ba8d7fba0eb56c349469c6108117d2235c6", "name": "El Luchador", "opening_hours": {"open_now": false}, "photos": [{"height": 3024, "html_attributions": ["<a href=\"https://maps.google.com/maps/contrib/112716455278421083946\">Marc Wettstein</a>"], "photo_reference": "CmRaAAAAoyDVk3vGXF1PegJSEZZp2Eyljp6fnxW3opJyeuQeifPoMX5O5bWI1tt1j6qamFErCs9vu7HyLs_0ckljbKfzuoBpHuUIxnGNsLX50oSwTb9KNoZBF3H02XzOgMbXS9rVEhBL7o_Kt5ud-Nnxjax4m91aGhSr67o2fPe_KC62NBAykQj8c3bniQ", "width": 4032}], "place_id": "ChIJ3UeNCA4KkEcRyZwpt4rY6Mk", "plus_code": {"compound_code": "9GJM+MF Z\u00fcrich, Switzerland", "global_code": "8FVC9GJM+MF"}, "price_level": 2, "rating": 4.2, "reference": "ChIJ3UeNCA4KkEcRyZwpt4rY6Mk", "scope": "GOOGLE", "types": ["restaurant", "food", "point_of_interest", "establishment"], "user_ratings_total": 418, "vicinity": "Konradstrasse 69, Z\u00fcrich"}, {"geometry": {"location": {"lat": 47.3818896, "lng": 8.533499499999998}, "viewport": {"northeast": {"lat": 47.38325888029149, "lng": 8.534881130291502}, "southwest": {"lat": 47.38056091970849, "lng": 8.532183169708498}}}, "icon": "https://maps.gstatic.com/mapfiles/place_api/icons/restaurant-71.png", "id": "a71f9173b57e5ba44bbe439950dee6c56d4681a4", "name": "NA081", "opening_hours": {"open_now": false}, "photos": [{"height": 960, "html_attributions": ["<a href=\"https://maps.google.com/maps/contrib/103983957455503410706\">Gerardina Della Femina</a>"], "photo_reference": "CmRaAAAALS9WFLkhB4alypmNiYa3scGVTJNTx6guM16BqnGHXUQYIqOkmOO1li4lxcecTGQBIFM-WxS7ZBLQakJhUpzid7DZMlyUHmtzB1n4xq0T_M22-fd2wA9AdMeXzs225iQAEhCkRyzxSRe15dCSZz2PxORHGhSy6SNIUJA2ubMEDyasabTpXQV1tQ", "width": 1706}], "place_id": "ChIJkcy8qzkLkEcR04111-Dxtjo", "plus_code": {"compound_code": "9GJM+Q9 Z\u00fcrich, Switzerland", "global_code": "8FVC9GJM+Q9"}, "price_level": 2, "rating": 4.2, "reference": "ChIJkcy8qzkLkEcR04111-Dxtjo", "scope": "GOOGLE", "types": ["restaurant", "food", "point_of_interest", "establishment"], "user_ratings_total": 382, "vicinity": "Konradstrasse 71, Z\u00fcrich"}, {"geometry": {"location": {"lat": 47.3827927, "lng": 8.5402781}, "viewport": {"northeast": {"lat": 47.3841567802915, "lng": 8.541535380291501}, "southwest": {"lat": 47.3814588197085, "lng": 8.538837419708496}}}, "icon": "https://maps.gstatic.com/mapfiles/place_api/icons/restaurant-71.png", "id": "d850863055b469b4688e303f70636b86282a46ce", "name": "White Elephant", "photos": [{"height": 2657, "html_attributions": ["<a href=\"https://maps.google.com/maps/contrib/104815046546338313377\">White Elephant</a>"], "photo_reference": "CmRaAAAAO2_cxdvpyL9hN80LBSgXpCI5dGRUc-RvvQPWH13eKkSzPPhq0asc2BJp679E2ajWap3K5J30bO5_u0H0xZlrd8cHprLlhiQWKOSW7vpx5w4_E9u8Q0kFqP_xbdyU3GXREhB8yGSDYdQsiJnIShh2jId-GhTYERfLX1eAP4pxJIU2XGaznL5Sng", "width": 3543}], "place_id": "ChIJrQKf6wsKkEcR9P8wQBd1Hxc", "plus_code": {"compound_code": "9GMR+44 Z\u00fcrich, Switzerland", "global_code": "8FVC9GMR+44"}, "price_level": 3, "rating": 4.2, "reference": "ChIJrQKf6wsKkEcR9P8wQBd1Hxc", "scope": "GOOGLE", "types": ["restaurant", "food", "point_of_interest", "establishment"], "user_ratings_total": 267, "vicinity": "Neum\u00fchlequai 42, Z\u00fcrich"}, {"geometry": {"location": {"lat": 47.38397029999999, "lng": 8.532719400000001}, "viewport": {"northeast": {"lat": 47.3852931802915, "lng": 8.534029230291502}, "southwest": {"lat": 47.3825952197085, "lng": 8.531331269708497}}}, "icon": "https://maps.gstatic.com/mapfiles/place_api/icons/bar-71.png", "id": "3faa224fa9153e13098fdebd31a163644714ef03", "name": "The Green Room", "opening_hours": {"open_now": false}, "photos": [{"height": 3000, "html_attributions": ["<a href=\"https://maps.google.com/maps/contrib/112455556925004832764\">Dani Capraro</a>"], "photo_reference": "CmRaAAAApwFOOuiPO-Jl0_gmNEYTJZwzPPWyxLoghcoRXli0XrvvCV_XzrnYcdy4jk7d0YCo8vVYb2I4XGaqLYjgzUW1BUMk25nEhzKnhRFyz7KkN7r-dRS_l-NMoWWeAmHsYkMXEhAXbHGSwMYOh-GCkf1DFX5cGhQvDGz2QJUmkavJu_YEMTNidFm-DA", "width": 4000}], "place_id": "ChIJiaw077ELkEcR-ldbwDzH5RY", "plus_code": {"compound_code": "9GMM+H3 Z\u00fcrich, Switzerland", "global_code": "8FVC9GMM+H3"}, "price_level": 2, "rating": 4.4, "reference": "ChIJiaw077ELkEcR-ldbwDzH5RY", "scope": "GOOGLE", "types": ["bar", "restaurant", "food", "point_of_interest", "establishment"], "user_ratings_total": 238, "vicinity": "Limmatstrasse 118, Z\u00fcrich"}, {"geometry": {"location": {"lat": 47.3809006, "lng": 8.534725499999999}, "viewport": {"northeast": {"lat": 47.3822057802915, "lng": 8.536134930291501}, "southwest": {"lat": 47.3795078197085, "lng": 8.533436969708497}}}, "icon": "https://maps.gstatic.com/mapfiles/place_api/icons/restaurant-71.png", "id": "fb1b618f05019e6e5604cf592eeace51f4b1ec42", "name": "Der Gr\u00fcne Libanon", "opening_hours": {"open_now": false}, "photos": [{"height": 3000, "html_attributions": ["<a href=\"https://maps.google.com/maps/contrib/100010379575576438340\">T\u014do Ka-\u00ednn</a>"], "photo_reference": "CmRaAAAAm6Jp6A6zJH9YpUxWD2hbvLFikHoKuLtLis206ESqapfBGnfNH7HGvA--LkAgbeKJHHIVHT4rF-grh7q_5o-0vS5VH3U6gRJpwIZR3elwMEPID0kumBlSTVnCrlQ7sMfcEhCeTsubtDJbd20IGOr7ctNYGhSxdTjRt1C6lWWPsQ3tJSCXAgdeDg", "width": 4000}], "place_id": "ChIJtxUgZg4KkEcRKPW3YEvB_lQ", "plus_code": {"compound_code": "9GJM+9V Z\u00fcrich, Switzerland", "global_code": "8FVC9GJM+9V"}, "price_level": 1, "rating": 4.5, "reference": "ChIJtxUgZg4KkEcRKPW3YEvB_lQ", "scope": "GOOGLE", "types": ["restaurant", "food", "point_of_interest", "establishment"], "user_ratings_total": 883, "vicinity": "Hafnerstrasse 13, Z\u00fcrich"}, {"geometry": {"location": {"lat": 47.3825394, "lng": 8.5404662}, "viewport": {"northeast": {"lat": 47.38379923029149, "lng": 8.541698330291503}, "southwest": {"lat": 47.3811012697085, "lng": 8.539000369708498}}}, "icon": "https://maps.gstatic.com/mapfiles/place_api/icons/restaurant-71.png", "id": "ee1d2d79a42b8bce8f537d6f36e6282dfc09b3fc", "name": "Echo", "photos": [{"height": 2402, "html_attributions": ["<a href=\"https://maps.google.com/maps/contrib/113016092265423085351\">eCHo Restaurant</a>"], "photo_reference": "CmRaAAAA6WfLTKgSf4TEUwX-GVAqzq48tN_yjFxUUH99GdIFTLW31Uf-A7vxlS6gxizPfApTwJ7HunTgwi3TI3mlirUUfQvUV3UyQhOCsIatKrKW6F1gIE3GVAyxK5bU_egpHRCIEhARHtPSDZaZ0iJg-wU1wzzuGhQ1LR-D6yidY-r0S_YbLsNq4KWMUw", "width": 3600}], "place_id": "ChIJLx2f6wsKkEcRlm2og7gv_5o", "plus_code": {"compound_code": "9GMR+25 Z\u00fcrich, Switzerland", "global_code": "8FVC9GMR+25"}, "rating": 4.4, "reference": "ChIJLx2f6wsKkEcRlm2og7gv_5o", "scope": "GOOGLE", "types": ["restaurant", "food", "point_of_interest", "establishment"], "user_ratings_total": 218, "vicinity": "Neum\u00fchlequai 42, Z\u00fcrich"}], "status": "OK"}