{"html_attributions": [], "next_page_token": "CqQCIAEAAN6ix5dKnN5g56aT5HKlJ1JelwsnJqydfTzAq5XYatktyzoVm0SGcN2m3lSemZl0LSkNVnI9F-MqzSWbH5Wwt_9vb0jczrjLfXn961dMKhE9Cn8HQ-tmVyYZKU7ediMjDjqt_6nEMX0c1jiR7eqv0xBkAw9rIyxFFmQd6uimYey8fJWWVOnTfPaA94lOz-QU6ix623W3rqBADP8bohsy39cl1jZzGQTmrGCpKQfNoBHPhCtUzoNIl9XUM6j020cCQZlHVzx0oC3evue_EqtmNu68AUBZzuaFquVnZvmAhUclyiTlp_Jp4wb_AlDXJfo3pTzdZHpvVETPOzI3CvXPz5HBfxIGqCvJ5FO8EyCG8OvSjuhBqcha6Xb9-WpWo90HjxIQELpKxJFjaDemLPmAm_LEgxoU1rkGw-FkqvKHoRpyy2meH_4tJsg", "results": [{"geometry": {"location": {"lat": 47.3626863, "lng": 8.5106485}, "viewport": {"northeast": {"lat": 47.3639688802915, "lng": 8.512045080291502}, "southwest": {"lat": 47.36127091970851, "lng": 8.509347119708497}}}, "icon": "https://maps.gstatic.com/mapfiles/place_api/icons/restaurant-71.png", "id": "8d8652f69e94e861a38d413f71b8061d450a7740", "name": "Foodtruck King's Food Box", "opening_hours": {"open_now": false}, "place_id": "ChIJi_p6EAIJkEcRH3nPM_K5VMw", "plus_code": {"compound_code": "9G76+37 Z\u00fcrich, Switzerland", "global_code": "8FVC9G76+37"}, "reference": "ChIJi_p6EAIJkEcRH3nPM_K5VMw", "scope": "GOOGLE", "types": ["restaurant", "food", "point_of_interest", "establishment"], "vicinity": "R\u00e4ffelstrasse 29, Z\u00fcrich"}, {"geometry": {"location": {"lat": 47.3623184, "lng": 8.5101774}, "viewport": {"northeast": {"lat": 47.3635114802915, "lng": 8.511661980291503}, "southwest": {"lat": 47.3608135197085, "lng": 8.508964019708499}}}, "icon": "https://maps.gstatic.com/mapfiles/place_api/icons/restaurant-71.png", "id": "a607d2442586583d788a9ec311eee191c5dfcaf0", "name": "Swisscom Restaurant Binz", "place_id": "ChIJY8nQ5QEJkEcRhyUrV3PtTv0", "plus_code": {"compound_code": "9G66+W3 Z\u00fcrich, Switzerland", "global_code": "8FVC9G66+W3"}, "rating": 4.2, "reference": "ChIJY8nQ5QEJkEcRhyUrV3PtTv0", "scope": "GOOGLE", "types": ["restaurant", "food", "point_of_interest", "establishment"], "user_ratings_total": 30, "vicinity": "Binzring 17, Z\u00fcrich"}, {"geometry": {"location": {"lat": 47.3631994, "lng": 8.5122079}, "viewport": {"northeast": {"lat": 47.3644230302915, "lng": 8.513623830291504}, "southwest": {"lat": 47.36172506970851, "lng": 8.5109258697085}}}, "icon": "https://maps.gstatic.com/mapfiles/place_api/icons/restaurant-71.png", "id": "ee6b85bdc2d1604565055db1c3b83209da7d75e9", "name": "Daizy", "opening_hours": {"open_now": false}, "photos": [{"height": 460, "html_attributions": ["<a href=\"https://maps.google.com/maps/contrib/118386320316582503302\">Daizy</a>"], "photo_reference": "CmRaAAAAMk-k3nCncH24FoNGNAC3MdnuvM0PqBQmkg0cNcgQ9m2JLNATOpv8OO2MBdjPrDV14pZfDOMxcEhZ_6DoOF2oJ30unY-CBe-DS-Eg2-cuRgw8rvLBNi804a8GXkUYzw-MEhAMWdJNSUBXxGkNs6l4hvjmGhS08s5hwaxYkFs8QICQQRaI7yt5fA", "width": 690}], "place_id": "ChIJZQlSgYwJkEcRcexXz82dnrg", "plus_code": {"compound_code": "9G76+7V Z\u00fcrich, Switzerland", "global_code": "8FVC9G76+7V"}, "price_level": 2, "rating": 4.5, "reference": "ChIJZQlSgYwJkEcRcexXz82dnrg", "scope": "GOOGLE", "types": ["restaurant", "bar", "food", "point_of_interest", "establishment"], "user_ratings_total": 581, "vicinity": "R\u00e4ffelstrasse 28, Z\u00fcrich"}, {"geometry": {"location": {"lat": 47.3646544, "lng": 8.5105568}, "viewport": {"northeast": {"lat": 47.3660179802915, "lng": 8.511795830291502}, "southwest": {"lat": 47.3633200197085, "lng": 8.509097869708498}}}, "icon": "https://maps.gstatic.com/mapfiles/place_api/icons/generic_business-71.png", "id": "9819278fd4da651b8e763c8f3e33f2b1d0131fe6", "name": "Piratino2 Pizza Kurier", "opening_hours": {"open_now": false}, "photos": [{"height": 742, "html_attributions": ["<a href=\"https://maps.google.com/maps/contrib/104504959380503582040\">Piratino2 Pizza Kurier</a>"], "photo_reference": "CmRaAAAAHNPL2o_BY7Mfd-92dWrUZkaleCytRqjPyxm4vnH9VFGSAqkDrnJmFysNOUkPSfCxOfUA62LoUuGh5zW1jjEgrBPdkrmYEhjRMSQDhwROHs_SdlA7PLhH2EEEjPeASoeGEhDwjPbzJ8KmdnfVAr5dFdldGhT8yo5XxBJnG1UxJzPQeGkjhGzINQ", "width": 556}], "place_id": "ChIJjYz17osJkEcRli_vkIIHbeo", "plus_code": {"compound_code": "9G76+V6 Z\u00fcrich, Switzerland", "global_code": "8FVC9G76+V6"}, "rating": 3.7, "reference": "ChIJjYz17osJkEcRli_vkIIHbeo", "scope": "GOOGLE", "types": ["meal_delivery", "restaurant", "food", "point_of_interest", "establishment"], "user_ratings_total": 51, "vicinity": "Sieberstrasse 12, Z\u00fcrich"}, {"geometry": {"location": {"lat": 47.3646544, "lng": 8.5105568}, "viewport": {"northeast": {"lat": 47.3660179802915, "lng": 8.511795830291502}, "southwest": {"lat": 47.3633200197085, "lng": 8.509097869708498}}}, "icon": "https://maps.gstatic.com/mapfiles/place_api/icons/restaurant-71.png", "id": "f8c23bc5265ae8f72ee2ae62f31177ff9b6bb52d", "name": "Piratino 2", "opening_hours": {"open_now": false}, "place_id": "ChIJSbDV-qoJkEcRBHxJFn6RTfE", "plus_code": {"compound_code": "9G76+V6 Z\u00fcrich, Switzerland", "global_code": "8FVC9G76+V6"}, "reference": "ChIJSbDV-qoJkEcRBHxJFn6RTfE", "scope": "GOOGLE", "types": ["meal_takeaway", "restaurant", "food", "point_of_interest", "establishment"], "vicinity": "Sieberstrasse 12, Z\u00fcrich"}, {"geometry": {"location": {"lat": 47.36150679999999, "lng": 8.510513499999998}, "viewport": {"northeast": {"lat": 47.3630143302915, "lng": 8.512199930291501}, "southwest": {"lat": 47.3603163697085, "lng": 8.509501969708497}}}, "icon": "https://maps.gstatic.com/mapfiles/place_api/icons/restaurant-71.png", "id": "3580b145f357921757d031a4360749456a101529", "name": "Swiss Life Restaurant Binz49", "opening_hours": {"open_now": false}, "photos": [{"height": 4032, "html_attributions": ["<a href=\"https://maps.google.com/maps/contrib/106829891829295403668\">Roman Stalder</a>"], "photo_reference": "CmRaAAAA5df86D7TaG5RkSIQMQ6fHLS7gT8wcxkLORWc6VosQ3v6_IYDKvNK1rF9dqpXYeCsooads6w9XnO10SygMga_T6nqMthOolHgm5zavhOraaAF-Be65oh5fGSsLsxD9B9CEhATOyjkGJy0EbEH3bH9llUjGhTZ2YrK0CJ8qVIkCdg4VnJCi5SVYQ", "width": 2268}], "place_id": "ChIJRWdUzYIJkEcR09OH4haMqGE", "plus_code": {"compound_code": "9G66+J6 Z\u00fcrich, Switzerland", "global_code": "8FVC9G66+J6"}, "rating": 5, "reference": "ChIJRWdUzYIJkEcR09OH4haMqGE", "scope": "GOOGLE", "types": ["restaurant", "food", "point_of_interest", "establishment"], "user_ratings_total": 1, "vicinity": "Grubenstrasse 49, Z\u00fcrich"}, {"geometry": {"location": {"lat": 47.36356929999999, "lng": 8.5124584}, "viewport": {"northeast": {"lat": 47.36465658029149, "lng": 8.513947230291503}, "southwest": {"lat": 47.3619586197085, "lng": 8.511249269708498}}}, "icon": "https://maps.gstatic.com/mapfiles/place_api/icons/bar-71.png", "id": "431f529c7fb5b347a46bc8eb3884d67f699e98f5", "name": "Dr. Brauwolf", "opening_hours": {"open_now": false}, "photos": [{"height": 3024, "html_attributions": ["<a href=\"https://maps.google.com/maps/contrib/111845557866556657904\">Svitlana Filatova</a>"], "photo_reference": "CmRaAAAA2xSBW5AthXISKpuBIammr-YHPzGa2ty0wTWWepuu1VUWqj4Tj7o7DoWpjjCE_c23Bg92gvhkuUOX3V7qthaZ7fF_3X3ohw5L0rAYjoFfXkQzxsHwDcxFKMc6sqsDSavWEhDCeuziAyKmjEOHFuiRjr98GhQYJSmscE4TXjkZ2OMzl84wabXdrQ", "width": 4032}], "place_id": "ChIJZQlSgYwJkEcRIOztou3NAfs", "plus_code": {"compound_code": "9G76+CX Z\u00fcrich, Switzerland", "global_code": "8FVC9G76+CX"}, "rating": 4.8, "reference": "ChIJZQlSgYwJkEcRIOztou3NAfs", "scope": "GOOGLE", "types": ["bar", "restaurant", "food", "point_of_interest", "establishment"], "user_ratings_total": 99, "vicinity": "R\u00e4ffelstrasse 26, Z\u00fcrich"}, {"geometry": {"location": {"lat": 47.36229179999999, "lng": 8.5123654}, "viewport": {"northeast": {"lat": 47.3634901302915, "lng": 8.513797380291503}, "southwest": {"lat": 47.3607921697085, "lng": 8.511099419708499}}}, "icon": "https://maps.gstatic.com/mapfiles/place_api/icons/generic_business-71.png", "id": "81b53d34a8f96c074221bdc10ef12967c700fd86", "name": "Binz 38", "opening_hours": {"open_now": false}, "photos": [{"height": 672, "html_attributions": ["<a href=\"https://maps.google.com/maps/contrib/113824579021454716113\">Binz 38</a>"], "photo_reference": "CmRaAAAA2fMIc56DzYr_wCxnMORKIh6V58Q53XMnVpu7jCgasufMY7djYSwDyC2nsCQxtSLb837K_ZtvT6OoKaBPpRc7--GpAPGZMUiELfLDg4RqTmTu3iJCrtJOegwTdqbTpbNZEhA3MAE3I2nbZzyuoiJ1gU2VGhSoHV_4qAmvOjppVb5PAnHv0iH5ag", "width": 1200}], "place_id": "ChIJB-x5tKMJkEcRshDE2Hp53FU", "plus_code": {"compound_code": "9G66+WW Z\u00fcrich, Switzerland", "global_code": "8FVC9G66+WW"}, "rating": 4.6, "reference": "ChIJB-x5tKMJkEcRshDE2Hp53FU", "scope": "GOOGLE", "types": ["restaurant", "food", "point_of_interest", "establishment"], "user_ratings_total": 10, "vicinity": "Binzstrasse 38, Z\u00fcrich"}, {"geometry": {"location": {"lat": 47.3632994, "lng": 8.512744199999998}, "viewport": {"northeast": {"lat": 47.3645369802915, "lng": 8.514152730291501}, "southwest": {"lat": 47.3618390197085, "lng": 8.511454769708497}}}, "icon": "https://maps.gstatic.com/mapfiles/place_api/icons/restaurant-71.png", "id": "c0ce595f7abc69ed93f0c69e15bf4d9d873ef151", "name": "Gelateria di Berna (Ape Piaggio)", "opening_hours": {"open_now": false}, "photos": [{"height": 1440, "html_attributions": ["<a href=\"https://maps.google.com/maps/contrib/101873459357378047582\">david amrein</a>"], "photo_reference": "CmRaAAAAGxf7tPea1J7588nVf35OQNr0j7Txt-uNG6luzm3jirSu9N0z0KYEcZhHRj26psTk8GlQWxlnfBPE2h4dcf3F2Nv5vG4LYUSQq42GBpGcS1z02PsQXKjM-2XsvpTMESobEhD74yhdhh_dn1EYEc0ZwVs9GhS7B9Xkak3H8Caw0SC4VsqdhMA_tA", "width": 1920}], "place_id": "ChIJmYXJjggJkEcROIeMW0V6qr4", "plus_code": {"compound_code": "9G77+83 Z\u00fcrich, Switzerland", "global_code": "8FVC9G77+83"}, "reference": "ChIJmYXJjggJkEcROIeMW0V6qr4", "scope": "GOOGLE", "types": ["restaurant", "food", "point_of_interest", "establishment"], "vicinity": "R\u00e4ffelstrasse 22, Z\u00fcrich"}, {"geometry": {"location": {"lat": 47.3628928, "lng": 8.513267400000002}, "viewport": {"northeast": {"lat": 47.3643668302915, "lng": 8.514549580291503}, "southwest": {"lat": 47.3616688697085, "lng": 8.511851619708498}}}, "icon": "https://maps.gstatic.com/mapfiles/place_api/icons/bar-71.png", "id": "e76eaf2ca1467d95b90d362c3b094dc6600e848f", "name": "Binz & Kunz", "opening_hours": {"open_now": false}, "photos": [{"height": 3024, "html_attributions": ["<a href=\"https://maps.google.com/maps/contrib/110289169661618827858\">Christopher Webster</a>"], "photo_reference": "CmRaAAAADillTWehQOO1rGs0ykws3qJPpmy9HFYlEUCehe0phKMFn6-00RAL-6umZ0lyKv46wCdercGIkKV4zvp5uwm-nAx6afVu62078-6n_AF3kfJTxXrGO_wyrYGFpKhkr2qMEhAXLNT1EtgBRxEQzM_mhx9YGhRLtfMT9QvAYDDixpdl_4KTzGs-gA", "width": 4032}], "place_id": "ChIJUbTNpYwJkEcRnbNV5y2tPiQ", "plus_code": {"compound_code": "9G77+58 Z\u00fcrich, Switzerland", "global_code": "8FVC9G77+58"}, "price_level": 2, "rating": 4.3, "reference": "ChIJUbTNpYwJkEcRnbNV5y2tPiQ", "scope": "GOOGLE", "types": ["meal_takeaway", "bar", "restaurant", "food", "point_of_interest", "establishment"], "user_ratings_total": 477, "vicinity": "R\u00e4ffelstrasse 17, Z\u00fcrich"}, {"geometry": {"location": {"lat": 47.3614938, "lng": 8.5134481}, "viewport": {"northeast": {"lat": 47.3628066802915, "lng": 8.514809030291502}, "southwest": {"lat": 47.3601087197085, "lng": 8.512111069708498}}}, "icon": "https://maps.gstatic.com/mapfiles/place_api/icons/restaurant-71.png", "id": "cbb5eb8633ede674536e8e2c36091fdddcefe443", "name": "La Bastide - Vinothek und Take Away", "opening_hours": {"open_now": false}, "photos": [{"height": 2976, "html_attributions": ["<a href=\"https://maps.google.com/maps/contrib/101515957836233248313\">La Bastide - Vinothek und Take Away</a>"], "photo_reference": "CmRaAAAAzOIiQ-8QTYJKgFZwSTa5eUd6q1SyZXZHFEdfYzUPs5A7IE2HsZLa4xloH_p6CxAKNsvRRCHIQ_iydKLzbWTWZwlDIuORxyJJVSpYpexNCXNkfAhynDjNY9L_yB_SGNE7EhClOLfGd7Ill8843R6hQznHGhQP1Sdl1VRFKw5iKjBbKC1L4f1V6w", "width": 3968}], "place_id": "ChIJtZMn34wJkEcR-djpJqGQ0V4", "plus_code": {"compound_code": "9G67+H9 Z\u00fcrich, Switzerland", "global_code": "8FVC9G67+H9"}, "rating": 4.6, "reference": "ChIJtZMn34wJkEcR-djpJqGQ0V4", "scope": "GOOGLE", "types": ["meal_takeaway", "liquor_store", "restaurant", "food", "point_of_interest", "store", "establishment"], "user_ratings_total": 5, "vicinity": "Grubenstrasse 38, Z\u00fcrich"}, {"geometry": {"location": {"lat": 47.36149349999999, "lng": 8.513450299999999}, "viewport": {"northeast": {"lat": 47.3628067302915, "lng": 8.5148111802915}, "southwest": {"lat": 47.3601087697085, "lng": 8.512113219708496}}}, "icon": "https://maps.gstatic.com/mapfiles/place_api/icons/restaurant-71.png", "id": "3eebc9abae019cfa74f2d3e467f26835fff5837c", "name": "Vins de la Bastide", "opening_hours": {"open_now": false}, "photos": [{"height": 2976, "html_attributions": ["<a href=\"https://maps.google.com/maps/contrib/112722972007768984545\">Vins de la Bastide</a>"], "photo_reference": "CmRaAAAAJ3Tyl34_pnfmYhCsFbz5bNGQAU2A_pLw_vzPnswnzDWotnQUZCA5B58NcNZmymB-T9wvavvODdICrbBtFjnmmo1R6mzb_Iq90KStbqRTaBCciHOX9k5NE_NgfZ_C5e6zEhAmaDSgZI-ntdxBxU5n-gBfGhQQioRIgDIGDgASMMUsSHlokF61mg", "width": 3968}], "place_id": "ChIJtZMn34wJkEcRzeunr62ZHdI", "plus_code": {"compound_code": "9G67+H9 Z\u00fcrich, Switzerland", "global_code": "8FVC9G67+H9"}, "rating": 2, "reference": "ChIJtZMn34wJkEcRzeunr62ZHdI", "scope": "GOOGLE", "types": ["meal_takeaway", "grocery_or_supermarket", "liquor_store", "restaurant", "food", "point_of_interest", "store", "establishment"], "user_ratings_total": 1, "vicinity": "Grubenstrasse 38, Z\u00fcrich"}, {"geometry": {"location": {"lat": 47.3604705, "lng": 8.507121099999999}, "viewport": {"northeast": {"lat": 47.36179383029149, "lng": 8.508404080291504}, "southwest": {"lat": 47.3590958697085, "lng": 8.505706119708499}}}, "icon": "https://maps.gstatic.com/mapfiles/place_api/icons/restaurant-71.png", "id": "460bd116b1b3d4c382eb33fdaf17fe2c236eaf90", "name": "Ristorante la Piazza", "photos": [{"height": 541, "html_attributions": ["<a href=\"https://maps.google.com/maps/contrib/105691978326827432071\">Ristorante la Piazza</a>"], "photo_reference": "CmRaAAAAu_j_vqB8NDc29B-LpeocwwWwvroQTcxKOA_Fi3IxpZlSJEzjeHVfpSzN1ZAvVr_-Nxd86c73piV2imGzyQIdqiRp55xnuUSWX7Dbm3E-0XBsMm5ewHYp27hh98IguC_OEhDn9cIwFNfeTF5AYk64SJXWGhSBQBUZzXN03aUWCOQ-Y1rJgrmT-A", "width": 960}], "place_id": "ChIJsYYJzmMJkEcRod9O8tCWuc4", "plus_code": {"compound_code": "9G64+5R Z\u00fcrich, Switzerland", "global_code": "8FVC9G64+5R"}, "rating": 4.7, "reference": "ChIJsYYJzmMJkEcRod9O8tCWuc4", "scope": "GOOGLE", "types": ["restaurant", "food", "point_of_interest", "establishment"], "user_ratings_total": 3, "vicinity": "Friesenbergplatz 7, Z\u00fcrich"}, {"geometry": {"location": {"lat": 47.3640179, "lng": 8.514569900000001}, "viewport": {"northeast": {"lat": 47.3654356802915, "lng": 8.516446930291503}, "southwest": {"lat": 47.3627377197085, "lng": 8.513748969708498}}}, "icon": "https://maps.gstatic.com/mapfiles/place_api/icons/restaurant-71.png", "id": "e203ef3c21572b41c01e42271b526ed72d04e49d", "name": "Zampano", "photos": [{"height": 2736, "html_attributions": ["<a href=\"https://maps.google.com/maps/contrib/113141434606398339583\">Ashish Shah</a>"], "photo_reference": "CmRaAAAAM6io18CZgyukxkZv2RaJNWG85QgJ6BxdW9AwYnKdgL1poMvWZY7iLtPmii6YTJ9l3N-4E2kT8K1NZ9tPnB28g07WdE3fGAwV7aJaxII3rBz5ubcEIUAglWajhbhYiLFuEhCVrrdOwjlilFqKg6ZqmqWwGhT1CH-A8t_kF8nXDIPV1nLLO5NHvA", "width": 3648}], "place_id": "ChIJA9KGI6UJkEcRzxTMrXjK-no", "plus_code": {"compound_code": "9G77+JR Z\u00fcrich, Switzerland", "global_code": "8FVC9G77+JR"}, "rating": 4.4, "reference": "ChIJA9KGI6UJkEcRzxTMrXjK-no", "scope": "GOOGLE", "types": ["restaurant", "food", "point_of_interest", "establishment"], "user_ratings_total": 9, "vicinity": "Talwiesenstrasse 17, Z\u00fcrich"}, {"geometry": {"location": {"lat": 47.361408, "lng": 8.5146522}, "viewport": {"northeast": {"lat": 47.3628392802915, "lng": 8.515975680291502}, "southwest": {"lat": 47.3601413197085, "lng": 8.5132777197085}}}, "icon": "https://maps.gstatic.com/mapfiles/place_api/icons/restaurant-71.png", "id": "30ea7d5f66c020a4f14db509053cc5d8f4f295fa", "name": "The Hidden Garden Pop-Up", "opening_hours": {"open_now": false}, "photos": [{"height": 640, "html_attributions": ["<a href=\"https://maps.google.com/maps/contrib/103537804972967537128\">The Hidden Garden Pop-Up</a>"], "photo_reference": "CmRaAAAABPr2z840ulOqfA5HhS57ZvhDlYcXkoq0PO6aDt5VNBq1uw0R6Y_yn48DhcyfCgQ85rM0zcitGDNUCs-Uip_xXMDKcuxHIMGtNxNcDVUNjMne7AfceS43ft4W7phODc60EhBOXmBhnnYrNJNQvQ8eng1VGhTw4jas6oETMPdeUBtmfkyqBiN4JQ", "width": 1102}], "place_id": "ChIJTfGC4wUJkEcRDC5je7DIH4Q", "plus_code": {"compound_code": "9G67+HV Z\u00fcrich, Switzerland", "global_code": "8FVC9G67+HV"}, "rating": 5, "reference": "ChIJTfGC4wUJkEcRDC5je7DIH4Q", "scope": "GOOGLE", "types": ["restaurant", "food", "point_of_interest", "establishment"], "user_ratings_total": 2, "vicinity": "Grubenstrasse 27, Z\u00fcrich"}, {"geometry": {"location": {"lat": 47.3614298, "lng": 8.514849200000002}, "viewport": {"northeast": {"lat": 47.3628643302915, "lng": 8.516170980291502}, "southwest": {"lat": 47.3601663697085, "lng": 8.5134730197085}}}, "icon": "https://maps.gstatic.com/mapfiles/place_api/icons/restaurant-71.png", "id": "6f05d00286e723286bd84e045989e6755546eb70", "name": "Smith And De Luma", "photos": [{"height": 1333, "html_attributions": ["<a href=\"https://maps.google.com/maps/contrib/102535715623766057411\">Smith And De Luma</a>"], "photo_reference": "CmRaAAAAhFgqRu3wHEFsi0xbGIut4LnOZgqf6APmXbGoujmYHTe8XO8d3hCsdWe-6GnwHAghoQKa78kZLD8eUnwdRagGNWnsF3nlLnJxlUR9NMxeJMXeivb3EAYc6lK0hVGo8V94EhAnJCYM9k3sl28cJ-r7wuuIGhS4lo1uKWGTWkhUu2Yrto87eIsmDw", "width": 2000}], "place_id": "ChIJJ1wbK_MJkEcRozD-ANNNgE4", "plus_code": {"compound_code": "9G67+HW Z\u00fcrich, Switzerland", "global_code": "8FVC9G67+HW"}, "price_level": 3, "rating": 4.4, "reference": "ChIJJ1wbK_MJkEcRozD-ANNNgE4", "scope": "GOOGLE", "types": ["restaurant", "food", "point_of_interest", "establishment"], "user_ratings_total": 457, "vicinity": "Grubenstrasse 27, Z\u00fcrich"}, {"geometry": {"location": {"lat": 47.3585511, "lng": 8.509431799999998}, "viewport": {"northeast": {"lat": 47.3599723302915, "lng": 8.5109195802915}, "southwest": {"lat": 47.3572743697085, "lng": 8.508221619708497}}}, "icon": "https://maps.gstatic.com/mapfiles/place_api/icons/restaurant-71.png", "id": "999dda2f17676b2a0a2a0000a20db1117deccdee", "name": "Herrenberg", "place_id": "ChIJtdUHcpIJkEcRvh__D8KeSZ4", "plus_code": {"compound_code": "9G55+CQ Z\u00fcrich, Switzerland", "global_code": "8FVC9G55+CQ"}, "rating": 4.5, "reference": "ChIJtdUHcpIJkEcRvh__D8KeSZ4", "scope": "GOOGLE", "types": ["restaurant", "food", "point_of_interest", "establishment"], "user_ratings_total": 2, "vicinity": "Arbentalstrasse 305, Z\u00fcrich"}, {"geometry": {"location": {"lat": 47.3617427, "lng": 8.516422500000001}, "viewport": {"northeast": {"lat": 47.3631289302915, "lng": 8.517763780291503}, "southwest": {"lat": 47.3604309697085, "lng": 8.515065819708498}}}, "icon": "https://maps.gstatic.com/mapfiles/place_api/icons/restaurant-71.png", "id": "fd546eac4b9e1be5e23401fcf9536cf2d28702f0", "name": "LaZoupa", "opening_hours": {"open_now": false}, "place_id": "ChIJD1U-GvMJkEcRtSDahm1fQhg", "plus_code": {"compound_code": "9G68+MH Z\u00fcrich, Switzerland", "global_code": "8FVC9G68+MH"}, "rating": 3.7, "reference": "ChIJD1U-GvMJkEcRtSDahm1fQhg", "scope": "GOOGLE", "types": ["meal_takeaway", "restaurant", "food", "point_of_interest", "establishment"], "user_ratings_total": 3, "vicinity": "Grubenstrasse 9, Z\u00fcrich"}, {"geometry": {"location": {"lat": 47.3619499, "lng": 8.5165908}, "viewport": {"northeast": {"lat": 47.3632372802915, "lng": 8.517942380291501}, "southwest": {"lat": 47.3605393197085, "lng": 8.515244419708496}}}, "icon": "https://maps.gstatic.com/mapfiles/place_api/icons/restaurant-71.png", "id": "7944e11fea9cb4675a636a18c224e71db59f91c8", "name": "Da Michele", "opening_hours": {"open_now": false}, "photos": [{"height": 4000, "html_attributions": ["<a href=\"https://maps.google.com/maps/contrib/101079672912110662462\">J\u00fcrg Stuker</a>"], "photo_reference": "CmRaAAAAwRefxxBo8emzDh10qldjSrBcmgWaDajhqyXLakIQnU58y-7IK1aXzHp5_ITrRdm2Zndb2Aarec4ThC8ozvoKtS4bgr2KiDRc4p4c0G8T6OL-0cv5ifvWuWKiNCpl-RveEhD-0jmVVs4HLPBcUpRJ4NGNGhTMVDFwr3MOqPcV1uBhQ2pvry0eOQ", "width": 6000}], "place_id": "ChIJfxpAAPMJkEcRp3JbCxKue_g", "plus_code": {"compound_code": "9G68+QJ Z\u00fcrich, Switzerland", "global_code": "8FVC9G68+QJ"}, "price_level": 2, "rating": 4.6, "reference": "ChIJfxpAAPMJkEcRp3JbCxKue_g", "scope": "GOOGLE", "types": ["restaurant", "food", "point_of_interest", "establishment"], "user_ratings_total": 168, "vicinity": "Grubenstrasse 12, Z\u00fcrich"}, {"geometry": {"location": {"lat": 47.3633259, "lng": 8.5174305}, "viewport": {"northeast": {"lat": 47.3646433302915, "lng": 8.518697980291503}, "southwest": {"lat": 47.3619453697085, "lng": 8.516000019708498}}}, "icon": "https://maps.gstatic.com/mapfiles/place_api/icons/restaurant-71.png", "id": "19680c177d6d5daa072e0b56522600b0f7e8fc81", "name": "Zapote - Californian Burritos & Salads", "opening_hours": {"open_now": false}, "photos": [{"height": 3840, "html_attributions": ["<a href=\"https://maps.google.com/maps/contrib/116043788330351972006\">Rainer Weidenhaupt</a>"], "photo_reference": "CmRaAAAAqyy3E116JCjfyeCMm_vjPmFQ4VOCSy6jvBF53Pc6nq7hTe0k9qRaThctJgqHmRsZhu5bovZqIMk_yRhHppKUVJLxt9HOAWPqV8-znCsJDLEd-lxiaGuM0DF4ZRnFXrJbEhBLHJsWKfMVH4ud2ggsEpFsGhRO8syRPshM6Cty74AOX45zsMN7jw", "width": 2160}], "place_id": "ChIJKQHZfPMJkEcRL8THxA8WVLQ", "plus_code": {"compound_code": "9G78+8X Z\u00fcrich, Switzerland", "global_code": "8FVC9G78+8X"}, "price_level": 2, "rating": 4.4, "reference": "ChIJKQHZfPMJkEcRL8THxA8WVLQ", "scope": "GOOGLE", "types": ["restaurant", "food", "point_of_interest", "establishment"], "user_ratings_total": 175, "vicinity": "Binzallee 4, Z\u00fcrich"}], "status": "OK"}