{"html_attributions": [], "next_page_token": "CqQCIAEAADgUwkT0eJMYRbZlJdMjlXP6DC_NpDzmhE1becCxbo_V4ldL5uhrLpl2k8i3kySv7OEtaHZ8go1w7zioXgfeEJLgyT6tVcz4iq8AxH9I2JQbB6QFu5XrK25ZgjUd2TpPXdjCyyoq3t2UBUYQzSEm8R4vQqFbMbd3CCCb7O1EGdutbdcLi_Trh2v2Y3innDCf0zTgN8gRVcVNvX6AxA0QAa8H-lfs55kS_zRBNsi3TMx_xlispO19Tj351J4eK_UL4FcVOjYJOBBHVw3AAoTvFyGss_lXk-dAlOEhkrFdHGFnZTS3Lta6k7yqrTnu8aZDfeNOzKuDAZMTbH4f1XjAgEpoI5xYHUTbr_kB8yG75mx15FWyTk9Yf4mtd3LpCnWZkhIQRZtOeJFkkrVw6KjyYRkUmRoUZcirC8eB-PKYIoCDSYZBWKZC9To", "results": [{"geometry": {"location": {"lat": 47.3823917, "lng": 8.5669831}, "viewport": {"northeast": {"lat": 47.38386178029149, "lng": 8.568428480291503}, "southwest": {"lat": 47.38116381970849, "lng": 8.565730519708499}}}, "icon": "https://maps.gstatic.com/mapfiles/place_api/icons/restaurant-71.png", "id": "a639f228ccf7caec861facce20e17cfc23e7499f", "name": "Restaurant Z\u00fcrichberg", "photos": [{"height": 1984, "html_attributions": ["<a href=\"https://maps.google.com/maps/contrib/113542361002197573059\">Restaurant Z\u00fcrichberg</a>"], "photo_reference": "CmRaAAAAsUDM51S6hM6yIjl5CfTW1puWoDnFlcFw-DOLbEzM8tCv2xoWPTmsk9xu-WOlV9FNlLdMEDlStkHiEh-ADfwu4BHrS7zCQc1ug3qRkt2aMLl4Y5LMa8cI8aYe844_Kwo0EhBLpPRz8opnT2WOeeKxHKDHGhRZsOXZdUj0Be6wLUKIHYxB0mZZgQ", "width": 2835}], "place_id": "ChIJ_RF7rr-gmkcRFiLab9__YXA", "plus_code": {"compound_code": "9HJ8+XQ Z\u00fcrich, Switzerland", "global_code": "8FVC9HJ8+XQ"}, "rating": 4.3, "reference": "ChIJ_RF7rr-gmkcRFiLab9__YXA", "scope": "GOOGLE", "types": ["bar", "restaurant", "food", "point_of_interest", "establishment"], "user_ratings_total": 159, "vicinity": "Orellistrasse 21, Z\u00fcrich"}, {"geometry": {"location": {"lat": 47.3861809, "lng": 8.560572499999997}, "viewport": {"northeast": {"lat": 47.38757848029149, "lng": 8.561876080291501}, "southwest": {"lat": 47.3848805197085, "lng": 8.559178119708497}}}, "icon": "https://maps.gstatic.com/mapfiles/place_api/icons/restaurant-71.png", "id": "27abb24e8a8f8e03ad31bff3ca35ecdb6ee6d689", "name": "Keine Information", "place_id": "ChIJnTVxo72hmkcRGieKRyIWSpo", "plus_code": {"compound_code": "9HP6+F6 Z\u00fcrich, Switzerland", "global_code": "8FVC9HP6+F6"}, "rating": 5, "reference": "ChIJnTVxo72hmkcRGieKRyIWSpo", "scope": "GOOGLE", "types": ["restaurant", "food", "point_of_interest", "establishment"], "user_ratings_total": 1, "vicinity": "Hinterbergstrasse 100, Z\u00fcrich"}, {"geometry": {"location": {"lat": 47.38109959999999, "lng": 8.557557799999998}, "viewport": {"northeast": {"lat": 47.38217028029149, "lng": 8.558565080291503}, "southwest": {"lat": 47.3794723197085, "lng": 8.555867119708498}}}, "icon": "https://maps.gstatic.com/mapfiles/place_api/icons/restaurant-71.png", "id": "cf58c3e51925c199dd8a11ebfbe46909f63778df", "name": "Restaurant Bethania Park", "photos": [{"height": 900, "html_attributions": ["<a href=\"https://maps.google.com/maps/contrib/108828636323158672204\">Restaurant Bethania Park</a>"], "photo_reference": "CmRaAAAAbDOyVlseAlZ50qlyoQf1LUf1Fmh8u1cwDFWOOdeBO9y5XvwzrL7JsBgYH6uqTEB72kmFqHVDY9PvmL8THmImoEwg62CzyfPCsi45Ie0amUJmz3bWHcKTOBmiTxKAMzryEhD3etFaYOQ-w0sxK2Zkzb5lGhRrvzPIjvo5lR0qlLx744_3eSfH5A", "width": 1200}], "place_id": "ChIJ-8cCf8ChmkcRun945C0EJaU", "plus_code": {"compound_code": "9HJ5+C2 Z\u00fcrich, Switzerland", "global_code": "8FVC9HJ5+C2"}, "reference": "ChIJ-8cCf8ChmkcRun945C0EJaU", "scope": "GOOGLE", "types": ["restaurant", "food", "point_of_interest", "establishment"], "vicinity": "Restaurant Bethania Park Privatklinik Bethanien, Toblerstrasse 51, Z\u00fcrich"}, {"geometry": {"location": {"lat": 47.3791667, "lng": 8.5555556}, "viewport": {"northeast": {"lat": 47.3805876802915, "lng": 8.556994530291501}, "southwest": {"lat": 47.3778897197085, "lng": 8.554296569708498}}}, "icon": "https://maps.gstatic.com/mapfiles/place_api/icons/restaurant-71.png", "id": "10f99526ad1fb999503b57f8dd927b2d04c346a6", "name": "Okay Italia", "opening_hours": {"open_now": false}, "photos": [{"height": 2988, "html_attributions": ["<a href=\"https://maps.google.com/maps/contrib/115233490363354570813\">Sven W. Eisenhart</a>"], "photo_reference": "CmRaAAAAoPXNMCgojznMbzKNFoLboXijzHUJVtUCpyJc74ubkkrl39X_5TxZONiSwrfQOF3uOP5UxBM8OiOUh6bSypckbPY4DWAXAgPd9z6IWbyDS1_JnUO6xLAPXR61U30SvT9kEhCQbBErWC14lks52Urntg_gGhSDqNdp9gx57RoJBEt_0GTzMLBq2g", "width": 5312}], "place_id": "ChIJF-gtuKSgmkcRCCB8Jx-7tlE", "plus_code": {"compound_code": "9HH4+M6 Z\u00fcrich, Switzerland", "global_code": "8FVC9HH4+M6"}, "price_level": 2, "rating": 4, "reference": "ChIJF-gtuKSgmkcRCCB8Jx-7tlE", "scope": "GOOGLE", "types": ["restaurant", "food", "point_of_interest", "establishment"], "user_ratings_total": 112, "vicinity": "Gladbachstrasse 94, Z\u00fcrich"}, {"geometry": {"location": {"lat": 47.384333, "lng": 8.573801099999999}, "viewport": {"northeast": {"lat": 47.3854856802915, "lng": 8.575317880291502}, "southwest": {"lat": 47.3827877197085, "lng": 8.572619919708497}}}, "icon": "https://maps.gstatic.com/mapfiles/place_api/icons/restaurant-71.png", "id": "9f0161c11ca0344099256afb8d6cd644f6186a4e", "name": "Pantanal", "opening_hours": {"open_now": false}, "photos": [{"height": 1499, "html_attributions": ["<a href=\"https://maps.google.com/maps/contrib/106492802937512946112\">Pantanal</a>"], "photo_reference": "CmRaAAAAqh4lmXS7F8YBUl5zPCeE_GT0oU0P7UB0GB0qGpgr8WVSp9L9kzPRhphtlrF2rlL1WVcgkke-mY_6EuVDQRjurFZhNU_Iw6_wNoY47t3FtS4azh0Bwvp6SKwXEau2FKZSEhCAhwRlHAFg98Yqz3BAUoDdGhSr0JHn59QImDGzauB4gEewTCFgTQ", "width": 2244}], "place_id": "ChIJ43ZCeuqgmkcRhsCoVyIUpcE", "plus_code": {"compound_code": "9HMF+PG Z\u00fcrich, Switzerland", "global_code": "8FVC9HMF+PG"}, "price_level": 2, "rating": 3.7, "reference": "ChIJ43ZCeuqgmkcRhsCoVyIUpcE", "scope": "GOOGLE", "types": ["restaurant", "food", "point_of_interest", "establishment"], "user_ratings_total": 131, "vicinity": "Z\u00fcrichbergstrasse 219, Z\u00fcrich"}, {"geometry": {"location": {"lat": 47.3842624, "lng": 8.574090499999999}, "viewport": {"northeast": {"lat": 47.3854834802915, "lng": 8.575542630291501}, "southwest": {"lat": 47.3827855197085, "lng": 8.572844669708497}}}, "icon": "https://maps.gstatic.com/mapfiles/place_api/icons/restaurant-71.png", "id": "4885ca87fecbc2b018ab0a7072fc0d52aaaad600", "name": "Pantanal Zoo Restaurants GmbH", "opening_hours": {"open_now": false}, "place_id": "ChIJE0QQbOKhmkcRlzOJPgKH33M", "plus_code": {"compound_code": "9HMF+PJ Z\u00fcrich, Switzerland", "global_code": "8FVC9HMF+PJ"}, "reference": "ChIJE0QQbOKhmkcRlzOJPgKH33M", "scope": "GOOGLE", "types": ["restaurant", "food", "point_of_interest", "establishment"], "vicinity": "Z\u00fcrichbergstrasse 219, Z\u00fcrich"}, {"geometry": {"location": {"lat": 47.3842624, "lng": 8.574090499999999}, "viewport": {"northeast": {"lat": 47.3854834802915, "lng": 8.575542630291501}, "southwest": {"lat": 47.3827855197085, "lng": 8.572844669708497}}}, "icon": "https://maps.gstatic.com/mapfiles/place_api/icons/restaurant-71.png", "id": "89148d7caa19e6cda70e81a4802cd09115d6a9f7", "name": "Masoala Zoo Restaurants GmbH", "opening_hours": {"open_now": false}, "place_id": "ChIJ__9WwN-hmkcRu-2d14eM8j8", "plus_code": {"compound_code": "9HMF+PJ Z\u00fcrich, Switzerland", "global_code": "8FVC9HMF+PJ"}, "reference": "ChIJ__9WwN-hmkcRu-2d14eM8j8", "scope": "GOOGLE", "types": ["restaurant", "food", "point_of_interest", "establishment"], "vicinity": "Z\u00fcrichbergstrasse 219, Z\u00fcrich"}, {"geometry": {"location": {"lat": 47.384248, "lng": 8.574140000000002}, "viewport": {"northeast": {"lat": 47.3854816802915, "lng": 8.575581980291503}, "southwest": {"lat": 47.3827837197085, "lng": 8.572884019708498}}}, "icon": "https://maps.gstatic.com/mapfiles/place_api/icons/restaurant-71.png", "id": "47905708c40f3293e70a8242590cca4793714130", "name": "Zoocaf\u00e9", "opening_hours": {"open_now": false}, "photos": [{"height": 608, "html_attributions": ["<a href=\"https://maps.google.com/maps/contrib/100918795890001780609\">Zoocaf\u00e9</a>"], "photo_reference": "CmRaAAAAVupRaRuacjkohIp5m21KLvozczfuLhWcemqQwK-M57xgqYgzZOf5Xdhuw76AWC7dH0anQvjit3mOjdhcTEPqWSqSyi3CcnradlQZ1xrf_QSh6n1qQLFmN1c5P0f2ZGh3EhCOUzM0fYQwmd9qJV4UTeqMGhQ3a-2dkliWsXs5_Ww7qly7wcz6Mg", "width": 1080}], "place_id": "ChIJy8A5ceqgmkcRA2sNkjJL6pY", "plus_code": {"compound_code": "9HMF+MM Z\u00fcrich, Switzerland", "global_code": "8FVC9HMF+MM"}, "price_level": 2, "rating": 4.1, "reference": "ChIJy8A5ceqgmkcRA2sNkjJL6pY", "scope": "GOOGLE", "types": ["restaurant", "zoo", "food", "point_of_interest", "establishment"], "user_ratings_total": 603, "vicinity": "Z\u00fcrichbergstrasse 219, Z\u00fcrich"}, {"geometry": {"location": {"lat": 47.376166, "lng": 8.559377999999999}, "viewport": {"northeast": {"lat": 47.37744363029149, "lng": 8.560673880291501}, "southwest": {"lat": 47.3747456697085, "lng": 8.557975919708497}}}, "icon": "https://maps.gstatic.com/mapfiles/place_api/icons/restaurant-71.png", "id": "a3bb92364d2041e53e96dfb18a376bf3650804aa", "name": "Grain Bar & Restaurant", "opening_hours": {"open_now": false}, "photos": [{"height": 4032, "html_attributions": ["<a href=\"https://maps.google.com/maps/contrib/104188764973487677702\">Maria Mahmoud</a>"], "photo_reference": "CmRaAAAAw9gguh1LcMZnfLNnWvCaLxMmhE6in_kqYv7yOhRhnxwO4CQPZqQvys1xye8QiLX-aoR5dRF-MWNA5HXxY2Jd0J2uPLVjkdQmoK3m_uqqM-qKa1kkf3-wfqJ0psXsuqAJEhD_sTBpW_4ckpIWlNGZnPqxGhSfAQn9Voxa5dEhUaW20I_8mImstQ", "width": 3024}], "place_id": "ChIJhVVA6I6hmkcRs3eGGw-Li7Q", "plus_code": {"compound_code": "9HG5+FQ Z\u00fcrich, Switzerland", "global_code": "8FVC9HG5+FQ"}, "rating": 4.5, "reference": "ChIJhVVA6I6hmkcRs3eGGw-Li7Q", "scope": "GOOGLE", "types": ["bar", "restaurant", "food", "point_of_interest", "establishment"], "user_ratings_total": 310, "vicinity": "Z\u00fcrichbergstrasse 71, Z\u00fcrich"}, {"geometry": {"location": {"lat": 47.3843952, "lng": 8.5752191}, "viewport": {"northeast": {"lat": 47.3855987802915, "lng": 8.576551730291502}, "southwest": {"lat": 47.3829008197085, "lng": 8.573853769708498}}}, "icon": "https://maps.gstatic.com/mapfiles/place_api/icons/restaurant-71.png", "id": "252fc5ed4c09a9ff2842977cc868b562ff1eedd3", "name": "dieci Primo Z\u00fcrich Veranstaltungssaal", "photos": [{"height": 1365, "html_attributions": ["<a href=\"https://maps.google.com/maps/contrib/104033217817331075805\">dieci Primo Z\u00fcrich Veranstaltungssaal</a>"], "photo_reference": "CmRaAAAAipPTBRN-HMxq6yla7Vas9ApfigYE_6zYZVs9wAp1DGvifLb2DC_ar5-SqYC_zViNm3j73C8MPkByYq_fmTdjX7FMs6Q3RTrBTq8cAzdcV2jFPgpiGfk7N51b3bfcJ5plEhBXdQWpr79cV8rLEROopMLbGhSV4TfIuBvORmoDjcIPs0SFF8gu5w", "width": 2048}], "place_id": "ChIJixkuDuqgmkcRgH2DHIb5T1w", "plus_code": {"compound_code": "9HMG+Q3 Z\u00fcrich, Switzerland", "global_code": "8FVC9HMG+Q3"}, "rating": 3.3, "reference": "ChIJixkuDuqgmkcRgH2DHIb5T1w", "scope": "GOOGLE", "types": ["restaurant", "food", "point_of_interest", "establishment"], "user_ratings_total": 3, "vicinity": "Z\u00fcrichbergstrasse 231, Z\u00fcrich"}, {"geometry": {"location": {"lat": 47.3843952, "lng": 8.5752191}, "viewport": {"northeast": {"lat": 47.3855987802915, "lng": 8.576551730291502}, "southwest": {"lat": 47.3829008197085, "lng": 8.573853769708498}}}, "icon": "https://maps.gstatic.com/mapfiles/place_api/icons/restaurant-71.png", "id": "6fddcb99c532f5d9e14e2a5956fd317b3bb4dc8a", "name": "Dieci", "opening_hours": {"open_now": false}, "photos": [{"height": 1399, "html_attributions": ["<a href=\"https://maps.google.com/maps/contrib/100050759446345097796\">dieci allo zoo Z\u00fcrich</a>"], "photo_reference": "CmRaAAAA3QSc6ORYZ6UatgPDboiOv31ipjunMOybjqGe8CWsuevebIral5uoMcFj43jEz_CiALmr96-OnhSZZSy1YwGHU1GieX0P5djpU5eglfYZpwzngBKJ7ZcnYyxTWyuwYDstEhD_Z3nQ9CCFgxYt72fQrUK3GhRcZSl-_hXHoU9kq4vO0PxSIfFqvA", "width": 2048}], "place_id": "ChIJixkuDuqgmkcRPYIS5jUuX5Q", "plus_code": {"compound_code": "9HMG+Q3 Z\u00fcrich, Switzerland", "global_code": "8FVC9HMG+Q3"}, "price_level": 2, "rating": 3.7, "reference": "ChIJixkuDuqgmkcRPYIS5jUuX5Q", "scope": "GOOGLE", "types": ["meal_takeaway", "restaurant", "food", "point_of_interest", "store", "establishment"], "user_ratings_total": 233, "vicinity": "Z\u00fcrichbergstrasse 231, Z\u00fcrich"}, {"geometry": {"location": {"lat": 47.388277, "lng": 8.553446999999998}, "viewport": {"northeast": {"lat": 47.38955363029149, "lng": 8.554620130291502}, "southwest": {"lat": 47.3868556697085, "lng": 8.551922169708497}}}, "icon": "https://maps.gstatic.com/mapfiles/place_api/icons/restaurant-71.png", "id": "cabdb9fb41795cd0237cf69e3355ff10ac8dcec0", "name": "Bistro", "photos": [{"height": 350, "html_attributions": ["<a href=\"https://maps.google.com/maps/contrib/104653999332641068703\">Bistro im Restaurant Rigiblick</a>"], "photo_reference": "CmRaAAAAHTdmHdKadgnpQzjcL26FyM1kniZ9NntqK3FEXsbX0lK8gtVqcr-Lv-4UcqwBXXve3OmsshLzl5Z4N2eJGEp1n0fPBEylUQD6DMHtZt5vD4V7PMaM8OVwDBm7HZxEwKGtEhCO4KyWHoXqz8QZb__ZbUZIGhRQPIe0euZXat65pTO_HByHgjxCDg", "width": 950}], "place_id": "ChIJs0y7LpmgmkcRCW5_diTcM1E", "plus_code": {"compound_code": "9HQ3+89 Z\u00fcrich, Switzerland", "global_code": "8FVC9HQ3+89"}, "rating": 4.3, "reference": "ChIJs0y7LpmgmkcRCW5_diTcM1E", "scope": "GOOGLE", "types": ["restaurant", "food", "point_of_interest", "establishment"], "user_ratings_total": 50, "vicinity": "Germaniastrasse 99, Z\u00fcrich"}, {"geometry": {"location": {"lat": 47.3882559, "lng": 8.553421799999999}, "viewport": {"northeast": {"lat": 47.3895391302915, "lng": 8.5546110302915}, "southwest": {"lat": 47.3868411697085, "lng": 8.551913069708496}}}, "icon": "https://maps.gstatic.com/mapfiles/place_api/icons/lodging-71.png", "id": "ceed310797195197efa771803f715d9edfe0acdc", "name": "Sorell Hotel Rigiblick", "photos": [{"height": 1984, "html_attributions": ["<a href=\"https://maps.google.com/maps/contrib/115550640130008814843\">Sorell Hotel Rigiblick</a>"], "photo_reference": "CmRZAAAAVYJSRRnQOhbp5VpuKk-qRwGB8Wy-424q6W1R0uJTqSQVkbIHnnTHhOGeEE9Blk85U0xCqj0Yw7TqQBZTDEumlCZPAW8X0HHMHd45uHYlwBuv3BJ-ARdQPpiotrDCEfRrEhD8JzaIcsPY7LLcW83W5vKgGhT8HuhaPL80uKP9SVX7ZWcaABCuIw", "width": 2280}], "place_id": "ChIJ9QT1KZmgmkcRHtgBzHAQ-Q4", "plus_code": {"compound_code": "9HQ3+89 Z\u00fcrich, Switzerland", "global_code": "8FVC9HQ3+89"}, "rating": 4.4, "reference": "ChIJ9QT1KZmgmkcRHtgBzHAQ-Q4", "scope": "GOOGLE", "types": ["lodging", "restaurant", "food", "point_of_interest", "establishment"], "user_ratings_total": 54, "vicinity": "Germaniastrasse 99, Z\u00fcrich"}, {"geometry": {"location": {"lat": 47.387316, "lng": 8.573873899999999}, "viewport": {"northeast": {"lat": 47.3886649802915, "lng": 8.5752228802915}, "southwest": {"lat": 47.3859670197085, "lng": 8.572524919708497}}}, "icon": "https://maps.gstatic.com/mapfiles/place_api/icons/restaurant-71.png", "id": "95d2f820a2ab9b4d6c45100cba7ade25085bc33f", "name": "Himalaya-Grill", "opening_hours": {"open_now": false}, "photos": [{"height": 3072, "html_attributions": ["<a href=\"https://maps.google.com/maps/contrib/114541125938311886128\">Schmid Romeo</a>"], "photo_reference": "CmRZAAAA6CwfAj2Arl60YXXRnyeY7ipmBZOWG6fDWJbUbMa9zctiJVy2kIZ6iI9K9peaVLUq9w-8zhanIO4zHUXFxzCSv5NAda6ldSuzu5IE19pD7heQr2yMu2XwOYZlI-wR29qwEhCZTTgme6PNgkGT6cJ35tPdGhQ6ClF_6N50zDTht_yg8N-ZhbKMPw", "width": 4608}], "place_id": "ChIJAWeHCeugmkcRcla1cYg1_hg", "plus_code": {"compound_code": "9HPF+WG Z\u00fcrich, Switzerland", "global_code": "8FVC9HPF+WG"}, "rating": 3, "reference": "ChIJAWeHCeugmkcRcla1cYg1_hg", "scope": "GOOGLE", "types": ["meal_takeaway", "restaurant", "food", "point_of_interest", "establishment"], "user_ratings_total": 6, "vicinity": "Z\u00fcrichbergstrasse 221, Z\u00fcrich"}, {"geometry": {"location": {"lat": 47.3823024, "lng": 8.550872}, "viewport": {"northeast": {"lat": 47.3835101802915, "lng": 8.552367830291503}, "southwest": {"lat": 47.3808122197085, "lng": 8.549669869708499}}}, "icon": "https://maps.gstatic.com/mapfiles/place_api/icons/cafe-71.png", "id": "ba04aec4fc810c5fa4c2d72e5715c1201ae277b8", "name": "Cafe Bar Meierei", "opening_hours": {"open_now": false}, "photos": [{"height": 3024, "html_attributions": ["<a href=\"https://maps.google.com/maps/contrib/115000441968188505450\">Cafe Bar Meierei</a>"], "photo_reference": "CmRaAAAAfX5vot4j5CRECF9uZJS4u59bkExHHxc9-d7uiquesZFCoZrkIA8s-ffeKDIrtQLiAQtwdRPfU11GpCsE18jGLxKU43ZnUsTIprZRpUDkqm97RxyvI7qLk_IkVgsXqNBcEhC8Z18X5jpTbOno-0noyocFGhR10sktrybGUmOVKjKf-F-EdvJ_Uw", "width": 4032}], "place_id": "ChIJOabxY6GgmkcR8Z5D6GnN_zQ", "plus_code": {"compound_code": "9HJ2+W8 Z\u00fcrich, Switzerland", "global_code": "8FVC9HJ2+W8"}, "rating": 4.7, "reference": "ChIJOabxY6GgmkcR8Z5D6GnN_zQ", "scope": "GOOGLE", "types": ["cafe", "bar", "liquor_store", "restaurant", "food", "point_of_interest", "store", "establishment"], "user_ratings_total": 27, "vicinity": "Spyristrasse 9, Z\u00fcrich"}, {"geometry": {"location": {"lat": 47.38271899999999, "lng": 8.550536}, "viewport": {"northeast": {"lat": 47.3840152302915, "lng": 8.551944880291503}, "southwest": {"lat": 47.3813172697085, "lng": 8.549246919708498}}}, "icon": "https://maps.gstatic.com/mapfiles/place_api/icons/generic_business-71.png", "id": "c2974132dbc4842baf9c29049750ef9b2dfebb6f", "name": "dieci Pizzakurier Z\u00fcrichberg", "opening_hours": {"open_now": false}, "photos": [{"height": 1920, "html_attributions": ["<a href=\"https://maps.google.com/maps/contrib/107598774757412501777\">dieci Pizzakurier Z\u00fcrichberg</a>"], "photo_reference": "CmRaAAAA6ClgdqEFYMTEZyNnYKFD_UkBFPa6GdTpkR8INokPuRoK8rY5H93H1PCPcQlSfOqxoML5nfeY0kuThh7__2pKMUo2waYIJkE0tdntwjFbd24_Bxe9qwUhatjhYMBXByQtEhBEtrDP6ZbY1Ki7AkrE2QNgGhTFTKw4YSnFSvNOuxIogrcipfddBA", "width": 2880}], "place_id": "ChIJGVh7cKGgmkcRlS5YHY80VuQ", "plus_code": {"compound_code": "9HM2+36 Z\u00fcrich, Switzerland", "global_code": "8FVC9HM2+36"}, "rating": 3.5, "reference": "ChIJGVh7cKGgmkcRlS5YHY80VuQ", "scope": "GOOGLE", "types": ["meal_delivery", "meal_takeaway", "restaurant", "food", "point_of_interest", "establishment"], "user_ratings_total": 30, "vicinity": "Landoltstrasse 7, Z\u00fcrich"}, {"geometry": {"location": {"lat": 47.38708399999999, "lng": 8.575486999999999}, "viewport": {"northeast": {"lat": 47.38842073029149, "lng": 8.576768780291504}, "southwest": {"lat": 47.3857227697085, "lng": 8.5740708197085}}}, "icon": "https://maps.gstatic.com/mapfiles/place_api/icons/restaurant-71.png", "id": "6487e848abb8ed3d9b72197a5bb0b59486070e81", "name": "Altes Kl\u00f6sterli", "opening_hours": {"open_now": false}, "photos": [{"height": 1497, "html_attributions": ["<a href=\"https://maps.google.com/maps/contrib/117551898131731286897\">Restaurant Altes Kl\u00f6sterli</a>"], "photo_reference": "CmRaAAAAeV2XQmmQLwnU_GyzBpMq1PijCdOd-xuJjFjw23sNlBuTt2TeCZG_iAELFM0ggtJZPUDaYFZyZcxc14z76KKa1DIzUymLoXOvRM28KB6o4CrokVVECY5Dfek9pk95huUQEhAQCh2XH974GB6hKzZmQiF1GhTk26AytW1i9z5Ux7HkOzlkhvhxFA", "width": 2244}], "place_id": "ChIJJYJIv-ugmkcRyxfGqhd97RM", "plus_code": {"compound_code": "9HPG+R5 Z\u00fcrich, Switzerland", "global_code": "8FVC9HPG+R5"}, "price_level": 2, "rating": 4.3, "reference": "ChIJJYJIv-ugmkcRyxfGqhd97RM", "scope": "GOOGLE", "types": ["restaurant", "food", "point_of_interest", "establishment"], "user_ratings_total": 620, "vicinity": "Klosterweg 36, Z\u00fcrich"}, {"geometry": {"location": {"lat": 47.3774254, "lng": 8.552825599999998}, "viewport": {"northeast": {"lat": 47.3786375302915, "lng": 8.554266480291503}, "southwest": {"lat": 47.3759395697085, "lng": 8.551568519708498}}}, "icon": "https://maps.gstatic.com/mapfiles/place_api/icons/restaurant-71.png", "id": "103de1c7ca4a80735e4d07b293e54c625d58ddb1", "name": "Foodtrailer ETZ", "opening_hours": {"open_now": false}, "place_id": "ChIJO_2Ep6WgmkcR1LFZ7lrBeUs", "plus_code": {"compound_code": "9HG3+X4 Z\u00fcrich, Switzerland", "global_code": "8FVC9HG3+X4"}, "rating": 4.4, "reference": "ChIJO_2Ep6WgmkcR1LFZ7lrBeUs", "scope": "GOOGLE", "types": ["restaurant", "food", "point_of_interest", "establishment"], "user_ratings_total": 19, "vicinity": "Gloriastrasse 35, Z\u00fcrich"}, {"geometry": {"location": {"lat": 47.3866968, "lng": 8.576212799999999}, "viewport": {"northeast": {"lat": 47.38804578029149, "lng": 8.577561780291502}, "southwest": {"lat": 47.38534781970849, "lng": 8.574863819708497}}}, "icon": "https://maps.gstatic.com/mapfiles/place_api/icons/restaurant-71.png", "id": "996381de1192e6614356c197170365de431869e0", "name": "Afrika Kiosk", "photos": [{"height": 4048, "html_attributions": ["<a href=\"https://maps.google.com/maps/contrib/114263342954006860660\">Ralph Keller</a>"], "photo_reference": "CmRaAAAA3lM0YbuY0XtC_0pVyr1hlnoQeyAbXjqnrLcuRGMYD7ApKh_HvBuB5hK4oqbndKvrs-2Fcm0CZGSC9VkBN0CzoKay7ukLUn8pglkpNBOA-7SsInHgkX5lsfDa5QbfDVM_EhBN-RQdIM4oPLXyqGS6prrKGhSD8CNCk3LcWC26TfeowJX1yDLG5w", "width": 3036}], "place_id": "ChIJuWu30OugmkcRME1EmE4-X2g", "plus_code": {"compound_code": "9HPG+MF Z\u00fcrich, Switzerland", "global_code": "8FVC9HPG+MF"}, "rating": 4, "reference": "ChIJuWu30OugmkcRME1EmE4-X2g", "scope": "GOOGLE", "types": ["meal_takeaway", "restaurant", "food", "point_of_interest", "establishment"], "user_ratings_total": 3, "vicinity": "Z\u00fcrichbergstrasse 221, Z\u00fcrich"}, {"geometry": {"location": {"lat": 47.3736135, "lng": 8.5656803}, "viewport": {"northeast": {"lat": 47.37490073029149, "lng": 8.566972230291503}, "southwest": {"lat": 47.3722027697085, "lng": 8.564274269708498}}}, "icon": "https://maps.gstatic.com/mapfiles/place_api/icons/restaurant-71.png", "id": "63094e9f031f0db501a84c2473ba0f64546b4798", "name": "Amiga", "place_id": "ChIJzQwEaw2hmkcRfwmiVpjt4YU", "plus_code": {"compound_code": "9HF8+C7 Z\u00fcrich, Switzerland", "global_code": "8FVC9HF8+C7"}, "reference": "ChIJzQwEaw2hmkcRfwmiVpjt4YU", "scope": "GOOGLE", "types": ["restaurant", "food", "point_of_interest", "establishment"], "vicinity": "Doldertal 32, Z\u00fcrich"}], "status": "OK"}