{"html_attributions": [], "next_page_token": "CqQCIAEAAGCtS1lkQbhlzYFoWhAs5z5NflGBPPHvJmPiv3ezmcXafYKuCMutqZW466rYKU1IgCIbGS8dlUsUpuTAOunVtmNr_YQHLDO7yvAwsyGJUklIlLKCe_-09fZJhtPZ_KuEkeRho2kjh93dPbk6Rsnf4XiMpgWNsLN24xL0ydvKnpGOvYIkSu9B7Ews0SiWvcFC7wisdsdrZWTcK16roLutcUtJTUk5MDJJdOD2Ql0Z8l_G6ucoXRSPdukCEFry2d1RYuzIsYuZ6PTFxshoseIya9n9PShRNXcBJLxe0gEZC1wM3WatLCA78tCuU3Mzhty-mNZUXXuNmr7ExerBezUx6m9w1MYvb7bj5F0euYTzPQbH2vFigBRkoPgqWyoCnBxK4RIQ7apEnRZHDFH97MjZp9YfhRoUGRnFXgrG-narXMcRYGK9j4LjrJs", "results": [{"geometry": {"location": {"lat": 47.38271899999999, "lng": 8.550536}, "viewport": {"northeast": {"lat": 47.3840152302915, "lng": 8.551944880291503}, "southwest": {"lat": 47.3813172697085, "lng": 8.549246919708498}}}, "icon": "https://maps.gstatic.com/mapfiles/place_api/icons/generic_business-71.png", "id": "c2974132dbc4842baf9c29049750ef9b2dfebb6f", "name": "dieci Pizzakurier Z\u00fcrichberg", "opening_hours": {"open_now": false}, "photos": [{"height": 1920, "html_attributions": ["<a href=\"https://maps.google.com/maps/contrib/107598774757412501777\">dieci Pizzakurier Z\u00fcrichberg</a>"], "photo_reference": "CmRaAAAAL6lMj-ojYbA5-FptwcRLcFpkMf3V-1iVDpznXoFNkMMxeDNTMsl2rZY7XqT2-81NMEKJP5AapCCnAjb-tGZeXXkKsMjn1ge6thW3y_jhrGrk1Qco5ZJlbigWnwU6UCy-EhDGLDFoGQyHuAhf44MOK7eTGhTRYq4V1RuxeSrMq3MsC34dK7uKNg", "width": 2880}], "place_id": "ChIJGVh7cKGgmkcRlS5YHY80VuQ", "plus_code": {"compound_code": "9HM2+36 Z\u00fcrich, Switzerland", "global_code": "8FVC9HM2+36"}, "rating": 3.5, "reference": "ChIJGVh7cKGgmkcRlS5YHY80VuQ", "scope": "GOOGLE", "types": ["meal_delivery", "meal_takeaway", "restaurant", "food", "point_of_interest", "establishment"], "user_ratings_total": 30, "vicinity": "Landoltstrasse 7, Z\u00fcrich"}, {"geometry": {"location": {"lat": 47.3823024, "lng": 8.550872}, "viewport": {"northeast": {"lat": 47.3835101802915, "lng": 8.552367830291503}, "southwest": {"lat": 47.3808122197085, "lng": 8.549669869708499}}}, "icon": "https://maps.gstatic.com/mapfiles/place_api/icons/cafe-71.png", "id": "ba04aec4fc810c5fa4c2d72e5715c1201ae277b8", "name": "Cafe Bar Meierei", "opening_hours": {"open_now": false}, "photos": [{"height": 3024, "html_attributions": ["<a href=\"https://maps.google.com/maps/contrib/115000441968188505450\">Cafe Bar Meierei</a>"], "photo_reference": "CmRaAAAAw6ImImaX2XbYIMPuYQ2v833_ViDRXcBL7yGFbrKp853hFfFzoxk-4Jk625e-pMohpaK-gOw4bV8TTimyy1IiVZmk6k55RaZdBIWjimfYuWfiyFWaUnfljZoFVOktyS_oEhA1MLqbUXZaMxcjsM37H5l2GhRH85LCVOzwU7p4e4wLaEvT0KSTlg", "width": 4032}], "place_id": "ChIJOabxY6GgmkcR8Z5D6GnN_zQ", "plus_code": {"compound_code": "9HJ2+W8 Z\u00fcrich, Switzerland", "global_code": "8FVC9HJ2+W8"}, "rating": 4.7, "reference": "ChIJOabxY6GgmkcR8Z5D6GnN_zQ", "scope": "GOOGLE", "types": ["cafe", "bar", "liquor_store", "restaurant", "food", "point_of_interest", "store", "establishment"], "user_ratings_total": 27, "vicinity": "Spyristrasse 9, Z\u00fcrich"}, {"geometry": {"location": {"lat": 47.3839667, "lng": 8.548056599999999}, "viewport": {"northeast": {"lat": 47.3853099802915, "lng": 8.549509830291502}, "southwest": {"lat": 47.3826120197085, "lng": 8.546811869708499}}}, "icon": "https://maps.gstatic.com/mapfiles/place_api/icons/restaurant-71.png", "id": "441cf7e2695c81b3e26b0dd8c0a9bb8e3157d682", "name": "Restaurant Rigihof", "opening_hours": {"open_now": false}, "place_id": "ChIJMVYlUKCgmkcR0JSMOF0BHzM", "plus_code": {"compound_code": "9GMX+H6 Z\u00fcrich, Switzerland", "global_code": "8FVC9GMX+H6"}, "rating": 4.5, "reference": "ChIJMVYlUKCgmkcR0JSMOF0BHzM", "scope": "GOOGLE", "types": ["restaurant", "food", "point_of_interest", "establishment"], "user_ratings_total": 2, "vicinity": "Universit\u00e4tstrasse 101, Z\u00fcrich"}, {"geometry": {"location": {"lat": 47.38488470000001, "lng": 8.548571299999999}, "viewport": {"northeast": {"lat": 47.3860755302915, "lng": 8.5498032302915}, "southwest": {"lat": 47.38337756970851, "lng": 8.547105269708497}}}, "icon": "https://maps.gstatic.com/mapfiles/place_api/icons/restaurant-71.png", "id": "9f5c7ca2843dc01c07ce69a4a43298d6ad7270fd", "name": "Zawan", "opening_hours": {"open_now": false}, "photos": [{"height": 3018, "html_attributions": ["<a href=\"https://maps.google.com/maps/contrib/106278214739378685231\">Zawan</a>"], "photo_reference": "CmRaAAAAFlXzLF7XdE1fwDdqAIN7bID5ClItf4OntE7FdJkTazHd-h5cs2Yw5Tbw7V8Ebdqzri9b9ecNZk42glmBLmRLlGM3YmRnkr7grH59khHtkHeaIKv0IpVriCPW84yzzXPYEhCSA0b-VBvBZOovWjobpCP0GhSTXKSmmp_PgYjU0Waiul8hNLHekg", "width": 3018}], "place_id": "ChIJb7l1AqChmkcRlX2_qpWxAA8", "plus_code": {"compound_code": "9GMX+XC Z\u00fcrich, Switzerland", "global_code": "8FVC9GMX+XC"}, "rating": 4.4, "reference": "ChIJb7l1AqChmkcRlX2_qpWxAA8", "scope": "GOOGLE", "types": ["restaurant", "food", "point_of_interest", "establishment"], "user_ratings_total": 99, "vicinity": "Rigiplatz 1, Z\u00fcrich"}, {"geometry": {"location": {"lat": 47.3850202, "lng": 8.548657}, "viewport": {"northeast": {"lat": 47.38637793029149, "lng": 8.549887330291503}, "southwest": {"lat": 47.3836799697085, "lng": 8.547189369708498}}}, "icon": "https://maps.gstatic.com/mapfiles/place_api/icons/restaurant-71.png", "id": "62e68320c2dbf46e1cf49a97ceb33604afefda9d", "name": "Monte Rigi", "opening_hours": {"open_now": false}, "place_id": "ChIJ42ZNpKagmkcR3DwLxJgsBYY", "plus_code": {"compound_code": "9GPX+2F Z\u00fcrich, Switzerland", "global_code": "8FVC9GPX+2F"}, "rating": 4.1, "reference": "ChIJ42ZNpKagmkcR3DwLxJgsBYY", "scope": "GOOGLE", "types": ["restaurant", "food", "point_of_interest", "establishment"], "user_ratings_total": 20, "vicinity": "Universit\u00e4tsstrasse 110, Z\u00fcrich"}, {"geometry": {"location": {"lat": 47.38500739999999, "lng": 8.548244199999997}, "viewport": {"northeast": {"lat": 47.38635018029149, "lng": 8.5496774802915}, "southwest": {"lat": 47.3836522197085, "lng": 8.546979519708495}}}, "icon": "https://maps.gstatic.com/mapfiles/place_api/icons/restaurant-71.png", "id": "9377e00f1b49a3935cbe1c87e2baebc8701e18c3", "name": "Zum Alten L\u00f6wen", "opening_hours": {"open_now": false}, "photos": [{"height": 1200, "html_attributions": ["<a href=\"https://maps.google.com/maps/contrib/102105845801985224176\">Zum Alten L\u00f6wen</a>"], "photo_reference": "CmRaAAAAO7FP845Itx4Kd0A3HqPaASZr6LvseZtR-U-e0seexqS3o_oYpun2YCOlyXBXNZd891kOOkk6X4llFxOtuopIFAcHJQ10Q8CAsB_tN1JLnOe2W3aRX6gYYzstu8zYd_EbEhBCBsa73BEGgf1xB6pr_VVEGhQegCKoOsV5qRnGpEraUhfd7GNmIA", "width": 1800}], "place_id": "ChIJJ5GeMKCgmkcRbLvoy2R_iYU", "plus_code": {"compound_code": "9GPX+27 Z\u00fcrich, Switzerland", "global_code": "8FVC9GPX+27"}, "price_level": 2, "rating": 4.6, "reference": "ChIJJ5GeMKCgmkcRbLvoy2R_iYU", "scope": "GOOGLE", "types": ["restaurant", "food", "point_of_interest", "establishment"], "user_ratings_total": 351, "vicinity": "Universit\u00e4tstrasse 111, Z\u00fcrich"}, {"geometry": {"location": {"lat": 47.3822279, "lng": 8.5474006}, "viewport": {"northeast": {"lat": 47.3835072802915, "lng": 8.548849080291502}, "southwest": {"lat": 47.3808093197085, "lng": 8.546151119708497}}}, "icon": "https://maps.gstatic.com/mapfiles/place_api/icons/restaurant-71.png", "id": "5d99b7c798a45aba5eac7fd2f2497c888d852696", "name": "Stapferstube da Rizzo", "opening_hours": {"open_now": false}, "photos": [{"height": 3024, "html_attributions": ["<a href=\"https://maps.google.com/maps/contrib/109560683898874003504\">Stapferstube da Rizzo</a>"], "photo_reference": "CmRaAAAANU_oH67JrWyooxvh1UmwVveHBcKltCrWxXGXa057Aj5X2lz8YW7og_wQtw_kX-Av1baQwRaawb1Qd5au65-Z3I5Jmid17E0ESFtVubGYE77LQHxtlMGQ8ugSAAtYOgnjEhADf9cU7cRqImWt3oUSjq0RGhR3zJY2idBaLJqkXbsy7rf_80U2_Q", "width": 4032}], "place_id": "ChIJu7X956CgmkcRCa4LGd0bo8o", "plus_code": {"compound_code": "9GJW+VX Z\u00fcrich, Switzerland", "global_code": "8FVC9GJW+VX"}, "rating": 4.5, "reference": "ChIJu7X956CgmkcRCa4LGd0bo8o", "scope": "GOOGLE", "types": ["restaurant", "food", "point_of_interest", "establishment"], "user_ratings_total": 158, "vicinity": "Culmannstrasse 45, Z\u00fcrich"}, {"geometry": {"location": {"lat": 47.3815938, "lng": 8.548347200000002}, "viewport": {"northeast": {"lat": 47.3829431302915, "lng": 8.549608080291502}, "southwest": {"lat": 47.3802451697085, "lng": 8.546910119708498}}}, "icon": "https://maps.gstatic.com/mapfiles/place_api/icons/restaurant-71.png", "id": "9e48dda2cf16d1553d00ffdcd0dc6df0af61b48d", "name": "Restaurant Rubina", "opening_hours": {"open_now": false}, "photos": [{"height": 2976, "html_attributions": ["<a href=\"https://maps.google.com/maps/contrib/112071392583503107787\">Dalibor Michael Ruzic Anderegg</a>"], "photo_reference": "CmRaAAAAZyVV5cnYm2pM2tAo2FY8ZBzGLTwoo4EjTzQGCGgtdmzUkf_Q9CnXoAu5UuqtDOApmqxSj-DB3_9CPCPNo5TdhWnLJregPxQSnObPcqMyijPM2u-kJn_CqjtKqAdgejVkEhDSgstW-ylhrRH-C5w09A6VGhSYCPfa1WkxN2WjojBU0MieymIsSA", "width": 2976}], "place_id": "ChIJUz4CJqGgmkcRJPathEIq_JY", "plus_code": {"compound_code": "9GJX+J8 Z\u00fcrich, Switzerland", "global_code": "8FVC9GJX+J8"}, "price_level": 2, "rating": 4.3, "reference": "ChIJUz4CJqGgmkcRJPathEIq_JY", "scope": "GOOGLE", "types": ["restaurant", "food", "point_of_interest", "establishment"], "user_ratings_total": 88, "vicinity": "Universit\u00e4tstrasse 56, Z\u00fcrich"}, {"geometry": {"location": {"lat": 47.3859012, "lng": 8.5486925}, "viewport": {"northeast": {"lat": 47.38723238029149, "lng": 8.549960180291503}, "southwest": {"lat": 47.38453441970849, "lng": 8.547262219708498}}}, "icon": "https://maps.gstatic.com/mapfiles/place_api/icons/restaurant-71.png", "id": "de2d6e90234f2fba50096e57444f9f7cb999541e", "name": "Migros Take Away", "opening_hours": {"open_now": false}, "place_id": "ChIJrVE-hJ-gmkcRpg2TbFxvL68", "plus_code": {"compound_code": "9GPX+9F Z\u00fcrich, Switzerland", "global_code": "8FVC9GPX+9F"}, "rating": 3.7, "reference": "ChIJrVE-hJ-gmkcRpg2TbFxvL68", "scope": "GOOGLE", "types": ["meal_takeaway", "bakery", "restaurant", "food", "point_of_interest", "store", "establishment"], "user_ratings_total": 6, "vicinity": "Winterthurerstrasse 2, Z\u00fcrich"}, {"geometry": {"location": {"lat": 47.3860277, "lng": 8.548663900000001}, "viewport": {"northeast": {"lat": 47.3873500302915, "lng": 8.549917180291503}, "southwest": {"lat": 47.3846520697085, "lng": 8.547219219708499}}}, "icon": "https://maps.gstatic.com/mapfiles/place_api/icons/shopping-71.png", "id": "d150054b55c34feaf554f62e0acb1a1bd0862d3d", "name": "k kiosk", "opening_hours": {"open_now": false}, "photos": [{"height": 3024, "html_attributions": ["<a href=\"https://maps.google.com/maps/contrib/106450589851489892853\">Franz Remigius Nescher</a>"], "photo_reference": "CmRaAAAAT-_I8R4EW1JN3et9xBolXnad1n4LbOlSu16L8orIQKugYArKc8781_XgH36sQEmjGqqhJRBGXW_w--47qOy9s7CPhws4zNi34fFSSTLZsd7IBYYfGSpDau8y7mqqwTyuEhCt6Ie5HX1AwUW0GDbHAjLCGhQduVbKyp4ORAHpNNYowGn-7NDlPQ", "width": 4032}], "place_id": "ChIJM_09lTShmkcRt1xP6kIEMxE", "plus_code": {"compound_code": "9GPX+CF Z\u00fcrich, Switzerland", "global_code": "8FVC9GPX+CF"}, "rating": 2, "reference": "ChIJM_09lTShmkcRt1xP6kIEMxE", "scope": "GOOGLE", "types": ["convenience_store", "liquor_store", "restaurant", "food", "point_of_interest", "store", "establishment"], "user_ratings_total": 3, "vicinity": "Winterthurerstrasse 2, Z\u00fcrich"}, {"geometry": {"location": {"lat": 47.38062679999999, "lng": 8.548333999999999}, "viewport": {"northeast": {"lat": 47.3819769802915, "lng": 8.549593480291502}, "southwest": {"lat": 47.3792790197085, "lng": 8.546895519708498}}}, "icon": "https://maps.gstatic.com/mapfiles/place_api/icons/restaurant-71.png", "id": "53b78d6680cf34db20c5203644e8b55c540f0d5f", "name": "Al Forno", "opening_hours": {"open_now": false}, "photos": [{"height": 4032, "html_attributions": ["<a href=\"https://maps.google.com/maps/contrib/100558627756940465928\">A. Isenring</a>"], "photo_reference": "CmRaAAAAX97-HS0rdjUS0WJPbOp7R4Sk4HA2nR_dBsKyAf4MuYRsnsG8us5rzHWflP73fYOKzBJf21212saPhQD3miK_54ToqRoD-Dnajs1KbKz29cD2Namr0TyPr4dz2ZI6B-NJEhB2YinOyBYWDxPHgFfbzRasGhR9gHyWQ9E6PmO_xMse6dxoJcWauQ", "width": 3024}], "place_id": "ChIJwxmP0aagmkcRuwANkhWVvRY", "plus_code": {"compound_code": "9GJX+78 Z\u00fcrich, Switzerland", "global_code": "8FVC9GJX+78"}, "price_level": 2, "rating": 4.5, "reference": "ChIJwxmP0aagmkcRuwANkhWVvRY", "scope": "GOOGLE", "types": ["restaurant", "food", "point_of_interest", "establishment"], "user_ratings_total": 202, "vicinity": "Universit\u00e4tstrasse 40, Z\u00fcrich"}, {"geometry": {"location": {"lat": 47.3805449, "lng": 8.5479867}, "viewport": {"northeast": {"lat": 47.3818954802915, "lng": 8.549420480291502}, "southwest": {"lat": 47.3791975197085, "lng": 8.546722519708498}}}, "icon": "https://maps.gstatic.com/mapfiles/place_api/icons/restaurant-71.png", "id": "a51465665d4f154af2e552e01d9c6bc0c7464aff", "name": "Uni-Point", "opening_hours": {"open_now": false}, "photos": [{"height": 3024, "html_attributions": ["<a href=\"https://maps.google.com/maps/contrib/106348822134858360016\">Johannes Rummel</a>"], "photo_reference": "CmRaAAAAzk4tnmD2gvvxVVTslUPFPG_C9kuGZ9gMeisZr1KrluuW8PaJrOI12zvSQhNGy6gymeY1aCEcqjJSpiALcwPiu1jxlP0oiP2yuTPFmx_5V-0qPsOmxc3x2d8nAvkElfV0EhC-ykR3LFVjvI-O_G2fQoUJGhRYqVErevDpD6sm4xM6eFvxQG4ZsA", "width": 4032}], "place_id": "ChIJz9fW0KagmkcR0bqDf7c12oI", "plus_code": {"compound_code": "9GJX+65 Z\u00fcrich, Switzerland", "global_code": "8FVC9GJX+65"}, "price_level": 1, "rating": 3.8, "reference": "ChIJz9fW0KagmkcR0bqDf7c12oI", "scope": "GOOGLE", "types": ["meal_takeaway", "restaurant", "food", "point_of_interest", "store", "establishment"], "user_ratings_total": 90, "vicinity": "Universit\u00e4tstrasse 43, Z\u00fcrich"}, {"geometry": {"location": {"lat": 47.3805388, "lng": 8.547198199999999}, "viewport": {"northeast": {"lat": 47.3818801802915, "lng": 8.5486221302915}, "southwest": {"lat": 47.3791822197085, "lng": 8.545924169708497}}}, "icon": "https://maps.gstatic.com/mapfiles/place_api/icons/restaurant-71.png", "id": "69abe9f043de7a833e2560af5ddd9b2f6d954fa7", "name": "Bamboo Inn", "opening_hours": {"open_now": false}, "photos": [{"height": 2267, "html_attributions": ["<a href=\"https://maps.google.com/maps/contrib/113608881125270890885\">Bamboo Inn</a>"], "photo_reference": "CmRaAAAAcPimBDQOs32eMusWG3J4Ey8kSIhSgKKJYAWcrNhExOPrzOYTr7dYrDtJmaQeiiwQVRC9o1CKFWAijBYJEVxy7IfxoqoVaPArfUgn_EZaqN5QUK2ke-cR_FlCVtivYrUcEhClz8w252el08YLjwC_NF0MGhRBG5VuizEJ8wN-ixRtyCjduXEELQ", "width": 4032}], "place_id": "ChIJc3LZLqegmkcRb-wVND3NCTI", "plus_code": {"compound_code": "9GJW+6V Z\u00fcrich, Switzerland", "global_code": "8FVC9GJW+6V"}, "rating": 4.5, "reference": "ChIJc3LZLqegmkcRb-wVND3NCTI", "scope": "GOOGLE", "types": ["restaurant", "food", "point_of_interest", "establishment"], "user_ratings_total": 124, "vicinity": "Culmannstrasse 19, Z\u00fcrich"}, {"geometry": {"location": {"lat": 47.3805388, "lng": 8.547198199999999}, "viewport": {"northeast": {"lat": 47.3818801802915, "lng": 8.5486221302915}, "southwest": {"lat": 47.3791822197085, "lng": 8.545924169708497}}}, "icon": "https://maps.gstatic.com/mapfiles/place_api/icons/restaurant-71.png", "id": "d54ac3321fee0a3ccf371cf13c98297b77fee261", "name": "\u82cf\u9ece\u4e16\u7af9\u56ed\u9152\u5bb6", "place_id": "ChIJc3LZLqegmkcRqkpHvC7cxZ0", "plus_code": {"compound_code": "9GJW+6V Z\u00fcrich, Switzerland", "global_code": "8FVC9GJW+6V"}, "rating": 4.3, "reference": "ChIJc3LZLqegmkcRqkpHvC7cxZ0", "scope": "GOOGLE", "types": ["restaurant", "food", "point_of_interest", "establishment"], "user_ratings_total": 4, "vicinity": "Culmannstrasse 19, Z\u00fcrich"}, {"geometry": {"location": {"lat": 47.38241299999999, "lng": 8.545115899999999}, "viewport": {"northeast": {"lat": 47.3837647802915, "lng": 8.5465884802915}, "southwest": {"lat": 47.3810668197085, "lng": 8.543890519708496}}}, "icon": "https://maps.gstatic.com/mapfiles/place_api/icons/restaurant-71.png", "id": "d97be2de146c9206a156460c0a109759c25f663c", "name": "or-asiacatering", "photos": [{"height": 558, "html_attributions": ["<a href=\"https://maps.google.com/maps/contrib/107213962456315954122\">or-asiacatering</a>"], "photo_reference": "CmRaAAAAc7D3jnfA8gvpg4ITF7CggwsRmOYO-kWA72gIeANOV7vIN4uGJBsYnngdKYoflg2W4i6Qx_D1nYu7GEe41XnjmGhDeR2rH0uRMCFIjyiAEJf_RMW-zYA5REEEzxR0ze2aEhDx9YotW5-Gwfv1n2FjzH63GhQi0Px8DwshgSNFhbddiU6ke7GNfw", "width": 1189}], "place_id": "ChIJsyqnn6CgmkcRlJ2iiZcxb_4", "plus_code": {"compound_code": "9GJW+X2 Z\u00fcrich, Switzerland", "global_code": "8FVC9GJW+X2"}, "reference": "ChIJsyqnn6CgmkcRlJ2iiZcxb_4", "scope": "GOOGLE", "types": ["restaurant", "food", "point_of_interest", "establishment"], "vicinity": "Scheuchzerstrasse 10, Z\u00fcrich"}, {"geometry": {"location": {"lat": 47.37995419999999, "lng": 8.5469294}, "viewport": {"northeast": {"lat": 47.3813031802915, "lng": 8.548278380291501}, "southwest": {"lat": 47.3786052197085, "lng": 8.545580419708497}}}, "icon": "https://maps.gstatic.com/mapfiles/place_api/icons/restaurant-71.png", "id": "5b7464a6551d407415e54122fd800763c0c5305f", "name": "Haldenbach", "opening_hours": {"open_now": false}, "photos": [{"height": 1200, "html_attributions": ["<a href=\"https://maps.google.com/maps/contrib/118312657654425643511\">Benjamin Br\u00e4ndle</a>"], "photo_reference": "CmRaAAAAyTA0_Sf_S2hW5IcAqiCTcPoPkEg8oKKOauhJCkVlPCxGzft_L5S5n7Obb4a-X3JVUaC2UGlxoHBglzke73YgldcJL2WNRDBGmFHR0VnL4DzJgQgH3qAVEjzVujeYPd4pEhC-m4yfxUb6GyQqZ90NEd8IGhSPxxI-9cnc29rW_McgcC_coWYu9w", "width": 1600}], "place_id": "ChIJJXeRI6egmkcRaeGi73XM24g", "plus_code": {"compound_code": "9GHW+XQ Z\u00fcrich, Switzerland", "global_code": "8FVC9GHW+XQ"}, "price_level": 2, "rating": 4.6, "reference": "ChIJJXeRI6egmkcRaeGi73XM24g", "scope": "GOOGLE", "types": ["restaurant", "food", "point_of_interest", "establishment"], "user_ratings_total": 158, "vicinity": "Haldenbachstrasse 2, Z\u00fcrich"}, {"geometry": {"location": {"lat": 47.3796409, "lng": 8.5479095}, "viewport": {"northeast": {"lat": 47.3809897302915, "lng": 8.549377980291503}, "southwest": {"lat": 47.3782917697085, "lng": 8.546680019708498}}}, "icon": "https://maps.gstatic.com/mapfiles/place_api/icons/restaurant-71.png", "id": "298d04d87f299d265702bf02244752e227f8d219", "name": "The Lemon Grass Thai Take Away & Catering", "opening_hours": {"open_now": false}, "place_id": "ChIJQeOb6i-hmkcRTJYkxxYs9MU", "plus_code": {"compound_code": "9GHX+V5 Z\u00fcrich, Switzerland", "global_code": "8FVC9GHX+V5"}, "rating": 3.8, "reference": "ChIJQeOb6i-hmkcRTJYkxxYs9MU", "scope": "GOOGLE", "types": ["restaurant", "food", "point_of_interest", "establishment"], "user_ratings_total": 4, "vicinity": "Universit\u00e4tstrasse 31, Z\u00fcrich"}, {"geometry": {"location": {"lat": 47.38272070000001, "lng": 8.543848200000001}, "viewport": {"northeast": {"lat": 47.3840543302915, "lng": 8.545050480291502}, "southwest": {"lat": 47.3813563697085, "lng": 8.542352519708498}}}, "icon": "https://maps.gstatic.com/mapfiles/place_api/icons/restaurant-71.png", "id": "a2e1e07a41788553fde69483a8cf5b9a229e1751", "name": "Weinberg", "opening_hours": {"open_now": false}, "photos": [{"height": 4128, "html_attributions": ["<a href=\"https://maps.google.com/maps/contrib/100150918082442201346\">Maximilian R.</a>"], "photo_reference": "CmRaAAAAlBL9rrp-Qssm4Ex87BKB8d7R_teNu9HZUJb5rmFQOZ5ufcTCeD4t-698IAxaGaXegBhObdrIXQ-_plG8FGP_7S6yA-nga6PRih8kSTx2S8-3FdTflRowMaTALZXOjvCCEhD2VxVRk559DYHKUie9p0VfGhRaOZeT3p2RWMkBLspc37yDNkyUXA", "width": 2322}], "place_id": "ChIJFR88agoKkEcRrtZJ8tIUdcU", "plus_code": {"compound_code": "9GMV+3G Z\u00fcrich, Switzerland", "global_code": "8FVC9GMV+3G"}, "rating": 4.5, "reference": "ChIJFR88agoKkEcRrtZJ8tIUdcU", "scope": "GOOGLE", "types": ["cafe", "restaurant", "food", "point_of_interest", "establishment"], "user_ratings_total": 24, "vicinity": "Weinbergstrasse 68, Z\u00fcrich"}, {"geometry": {"location": {"lat": 47.386126, "lng": 8.545331}, "viewport": {"northeast": {"lat": 47.38750823029149, "lng": 8.546762180291502}, "southwest": {"lat": 47.3848102697085, "lng": 8.544064219708497}}}, "icon": "https://maps.gstatic.com/mapfiles/place_api/icons/restaurant-71.png", "id": "38af1cb782fee844a215fa11ae7803feeced41fd", "name": "Kreis 6", "opening_hours": {"open_now": false}, "photos": [{"height": 2620, "html_attributions": ["<a href=\"https://maps.google.com/maps/contrib/105539939606829662090\">Daniel Santamaria</a>"], "photo_reference": "CmRaAAAA08Oma_1PNzeK57W-mpZ6fWg0IVmiBZvWAGct7kuV2YX4i5hsuSRJySqZEiVXEuaV7BsxQpLrbeL77NBW4z3j7p7_RFuLYL_Gws8anmLzH29PxVwfW-TofPIrI_LC2CXuEhBWI6fhE37LrrNGieHcR1VUGhSr8zK0OlqfxcsSdKqSsRS-aq_kNA", "width": 4656}], "place_id": "ChIJ28ptTHUKkEcR6SwSvGIIh-4", "plus_code": {"compound_code": "9GPW+F4 Z\u00fcrich, Switzerland", "global_code": "8FVC9GPW+F4"}, "price_level": 3, "rating": 4.5, "reference": "ChIJ28ptTHUKkEcR6SwSvGIIh-4", "scope": "GOOGLE", "types": ["restaurant", "food", "point_of_interest", "establishment"], "user_ratings_total": 208, "vicinity": "Scheuchzerstrasse 65, Z\u00fcrich"}, {"geometry": {"location": {"lat": 47.3796236, "lng": 8.5468912}, "viewport": {"northeast": {"lat": 47.3809457302915, "lng": 8.548166380291502}, "southwest": {"lat": 47.3782477697085, "lng": 8.545468419708497}}}, "icon": "https://maps.gstatic.com/mapfiles/place_api/icons/restaurant-71.png", "id": "12fb0554c395368d815f8da877fb49b89dfb41a2", "name": "The Lemon Grass", "opening_hours": {"open_now": false}, "photos": [{"height": 1702, "html_attributions": ["<a href=\"https://maps.google.com/maps/contrib/112165285015460639190\">The Lemon Grass</a>"], "photo_reference": "CmRaAAAAvrIyg0EzxmNo_BJqbtaBrSoZp9o-NqupCOlVLqQ9Dpkxmyfc_OUoYq5FNaOLWgzG4feVtFoeGSgMfL-m_kxGhlUsTX8pSk38fEaLoV_IVvktVVVxWu_qtp4x2iT8qpArEhAn1onKH5u-u2IwYghQze7WGhRokXtMeLK5B4DnNy1MV9ipXvLDPw", "width": 3024}], "place_id": "ChIJq6qqqnUKkEcRw43zGs7kxLo", "plus_code": {"compound_code": "9GHW+RQ Z\u00fcrich, Switzerland", "global_code": "8FVC9GHW+RQ"}, "rating": 4.3, "reference": "ChIJq6qqqnUKkEcRw43zGs7kxLo", "scope": "GOOGLE", "types": ["restaurant", "food", "point_of_interest", "establishment"], "user_ratings_total": 47, "vicinity": "Universit\u00e4tstrasse 31, Z\u00fcrich"}], "status": "OK"}