{"html_attributions": [], "next_page_token": "CqQCIAEAAJrBq7PpystzZ2PSogRpbkv0fPdxftoU6Cb7wwIeomMhjuzVwnnsVqCLSRyWlrUFv-PV-Tu-dybTSn_I_LazNfr2L5mJJ-FXjdsYtp0jCXSNoWasY2Gb46hQib0A0OiM3V0mid-Rrl86Ao0WARvHvlWATJTvAUc7n-z-TvvAKIPT2t4Fr16PYOGFIJ6XfFdThxqudRzucDo8XaEO22uXjv15ERLx2Wm_Wwz8R8axdXjuKrqAENrxac92n39fkp0GriU2olbbfJYNMbQ_aOvfbLTUztsdMYa7BwF9ewmWM-6EfG-cSuT8kVCnbptvBYTwr_XMQuaWb6dU4I6FYWctZUVybcvw6BcVDzsjWEZ4xbPoFc1CXnQAsOfRAGxXkeexhRIQrGp17iOaZ4r1f37t7FOFuBoUcwSZeMegBLY9zD2PbweIA9jNoLk", "results": [{"geometry": {"location": {"lat": 47.3695029, "lng": 8.536710099999999}, "viewport": {"northeast": {"lat": 47.3708781302915, "lng": 8.538027130291503}, "southwest": {"lat": 47.3681801697085, "lng": 8.535329169708499}}}, "icon": "https://maps.gstatic.com/mapfiles/place_api/icons/restaurant-71.png", "id": "1da22ab5b7c418028ab81b916f5287507d238cf5", "name": "Q-Up", "opening_hours": {"open_now": false}, "photos": [{"height": 3024, "html_attributions": ["<a href=\"https://maps.google.com/maps/contrib/113010438235016101723\">Claudio Bottega</a>"], "photo_reference": "CmRaAAAAKPLKWKxLwrzdNn6UnvU2wVnUd6vh8nU8lJxPaIrU-BOV39BlGWoSnVLJ5RQmZ4Yz1uOe8XzKUcWOq4hQ_QOjn7-DtIUTZuHwqzZJZctl-UbcK0sbLsKo0qW_gfHfEFefEhCDxwR6fRvPJ66arHLSapS0GhTv04HSVZQc8G8sLZob2yRwT3s18Q", "width": 4032}], "place_id": "ChIJ4aq0CgEKkEcRVZyvJrN9edk", "plus_code": {"compound_code": "9G9P+RM Z\u00fcrich, Switzerland", "global_code": "8FVC9G9P+RM"}, "rating": 4.3, "reference": "ChIJ4aq0CgEKkEcRVZyvJrN9edk", "scope": "GOOGLE", "types": ["restaurant", "food", "point_of_interest", "establishment"], "user_ratings_total": 64, "vicinity": "B\u00e4rengasse 25, Z\u00fcrich"}, {"geometry": {"location": {"lat": 47.37023399999999, "lng": 8.53736}, "viewport": {"northeast": {"lat": 47.3715066802915, "lng": 8.538804980291502}, "southwest": {"lat": 47.3688087197085, "lng": 8.536107019708497}}}, "icon": "https://maps.gstatic.com/mapfiles/place_api/icons/shopping-71.png", "id": "3c08a725e0756e49544f7ac5ef41e6f5d706a2ce", "name": "k kiosk", "opening_hours": {"open_now": false}, "photos": [{"height": 1080, "html_attributions": ["<a href=\"https://maps.google.com/maps/contrib/101232355942118153744\">AH A</a>"], "photo_reference": "CmRaAAAA-v5kQnPnlEqGW4XuKimXnaF3ZnJJT7VCW1tmq6IV1jEK_iIeEywsZ1LQ7UblZNGZ0ABKGulT_1Lteu-B16S_EdDTzrMdx0vHjfl2k5JI5fjNBqZYBbrgEicKpLnRc7rHEhCRUn60nZmbx68qafrCXrIlGhQjYmYS_O6KHNmijUzjzJQW6rhNCg", "width": 1920}], "place_id": "ChIJWcdzirkLkEcRQecAsW4OHuI", "plus_code": {"compound_code": "9GCP+3W Z\u00fcrich, Switzerland", "global_code": "8FVC9GCP+3W"}, "rating": 4, "reference": "ChIJWcdzirkLkEcRQecAsW4OHuI", "scope": "GOOGLE", "types": ["convenience_store", "liquor_store", "restaurant", "food", "point_of_interest", "store", "establishment"], "user_ratings_total": 2, "vicinity": "B\u00e4rengasse 16, Z\u00fcrich"}, {"geometry": {"location": {"lat": 47.37034769999999, "lng": 8.535702600000002}, "viewport": {"northeast": {"lat": 47.3717309302915, "lng": 8.537097930291502}, "southwest": {"lat": 47.3690329697085, "lng": 8.534399969708497}}}, "icon": "https://maps.gstatic.com/mapfiles/place_api/icons/restaurant-71.png", "id": "f64ce205069d639219859f89582491910e3461cd", "name": "Luigia", "opening_hours": {"open_now": false}, "photos": [{"height": 3024, "html_attributions": ["<a href=\"https://maps.google.com/maps/contrib/114290666921803320861\">Yoong Hwee See</a>"], "photo_reference": "CmRaAAAAmX6GJSOG8JjrGXERbDyUahQ0W5MtyvC61F8BWlQ79tONlNqNeTQWVJxU-wW7F_y6aIadYbS8hWjRJabvQUmmSS1ZYSCC8zF-kjubRcoWbsmtPX5mXz4YBvrsC1l-SN7KEhAl15fyZJwVzEwOu96humlcGhQeBWPvtuvaocirNN6tjz4dv94SmA", "width": 4032}], "place_id": "ChIJ_0YzhycLkEcREC8sx6hleRI", "plus_code": {"compound_code": "9GCP+47 Z\u00fcrich, Switzerland", "global_code": "8FVC9GCP+47"}, "price_level": 2, "rating": 4.3, "reference": "ChIJ_0YzhycLkEcREC8sx6hleRI", "scope": "GOOGLE", "types": ["restaurant", "food", "point_of_interest", "establishment"], "user_ratings_total": 757, "vicinity": "Talstrasse 61, Z\u00fcrich"}, {"geometry": {"location": {"lat": 47.3705556, "lng": 8.5358333}, "viewport": {"northeast": {"lat": 47.3718603302915, "lng": 8.537122330291503}, "southwest": {"lat": 47.3691623697085, "lng": 8.534424369708498}}}, "icon": "https://maps.gstatic.com/mapfiles/place_api/icons/restaurant-71.png", "id": "11d11b0ed2a94f074a2ff659d9611354629e8bcd", "name": "Edomae", "opening_hours": {"open_now": false}, "photos": [{"height": 3024, "html_attributions": ["<a href=\"https://maps.google.com/maps/contrib/103722650369146983344\">Cloudia Chen</a>"], "photo_reference": "CmRaAAAAkLjlzJkzbn7UXpk9UFle8AVhbDhACe9AcBoncSJInwofowIL1x2okI3X5mf4SezAk5B15sUOn-l0z10ha_ct8-ol0rAUySqmzqqQKyVVyHMU0pVO_E2q3ZMWNuIrTLqXEhDBP4ytrr0u8W0MFuLw6CzBGhQay42uTvzhHCAUpk6eDNUusPEVog", "width": 4032}], "place_id": "ChIJ19vSZgEKkEcRL1X0DyBZjMw", "plus_code": {"compound_code": "9GCP+68 Z\u00fcrich, Switzerland", "global_code": "8FVC9GCP+68"}, "rating": 4.7, "reference": "ChIJ19vSZgEKkEcRL1X0DyBZjMw", "scope": "GOOGLE", "types": ["restaurant", "food", "point_of_interest", "establishment"], "user_ratings_total": 179, "vicinity": "Talstrasse 62, Z\u00fcrich"}, {"geometry": {"location": {"lat": 47.36964379999999, "lng": 8.5378364}, "viewport": {"northeast": {"lat": 47.3710051802915, "lng": 8.539472380291503}, "southwest": {"lat": 47.3683072197085, "lng": 8.536774419708498}}}, "icon": "https://maps.gstatic.com/mapfiles/place_api/icons/restaurant-71.png", "id": "ef2a806a2f1afaebe6033a6e0097605049f0c0f7", "name": "UBS Restaurant UBStairs", "place_id": "ChIJIVowPKMLkEcRZRGPrB7NL6k", "plus_code": {"compound_code": "9G9Q+V4 Z\u00fcrich, Switzerland", "global_code": "8FVC9G9Q+V4"}, "reference": "ChIJIVowPKMLkEcRZRGPrB7NL6k", "scope": "GOOGLE", "types": ["restaurant", "food", "point_of_interest", "establishment"], "vicinity": "Paradeplatz 6, Z\u00fcrich"}, {"geometry": {"location": {"lat": 47.3704611, "lng": 8.5352655}, "viewport": {"northeast": {"lat": 47.37188718029149, "lng": 8.536716980291501}, "southwest": {"lat": 47.3691892197085, "lng": 8.534019019708497}}}, "icon": "https://maps.gstatic.com/mapfiles/place_api/icons/restaurant-71.png", "id": "1fe7f07e959f10d1c08d20d5a54120668604d3ae", "name": "Haute", "opening_hours": {"open_now": false}, "photos": [{"height": 4480, "html_attributions": ["<a href=\"https://maps.google.com/maps/contrib/111212130776536377424\">HAUTE SA</a>"], "photo_reference": "CmRaAAAAHn2dtPejTe6HG0zM5Hx5ov5IURTFO-icWp0KCWooDx8yABIbAMwIklFEi-hkUie4FnXd-vCfySHCU4mHZTN35HpUj34Nc4l0L7_erPveUiU1MVolDueltj9aUbn2FEZGEhC7DMJDrhV-08q7oUQAH6Z3GhSUHocafjSgQcXJPuF5WMBkblGuMg", "width": 6720}], "place_id": "ChIJoz6XXEkAkEcR-1tQupIXFOA", "plus_code": {"compound_code": "9GCP+54 Z\u00fcrich, Switzerland", "global_code": "8FVC9GCP+54"}, "price_level": 4, "rating": 4.7, "reference": "ChIJoz6XXEkAkEcR-1tQupIXFOA", "scope": "GOOGLE", "types": ["restaurant", "food", "point_of_interest", "establishment"], "user_ratings_total": 198, "vicinity": "Talstrasse 65, Z\u00fcrich"}, {"geometry": {"location": {"lat": 47.37099029999999, "lng": 8.5359421}, "viewport": {"northeast": {"lat": 47.3723950802915, "lng": 8.537205530291502}, "southwest": {"lat": 47.3696971197085, "lng": 8.534507569708499}}}, "icon": "https://maps.gstatic.com/mapfiles/place_api/icons/restaurant-71.png", "id": "8829f7021e1422445c51c24c2ea2fa146d41ca51", "name": "La Piazzetta", "opening_hours": {"open_now": false}, "photos": [{"height": 2268, "html_attributions": ["<a href=\"https://maps.google.com/maps/contrib/111064143269822565028\">Michael Schollenberger</a>"], "photo_reference": "CmRaAAAAIEinjKx5PgOywIYaMjg_NAkn3SAXosBgeBF0KdOA39Xeol8n_NG20dYmFdR6TPMGP8nhJwjgU_gaXMEMXxtJIRZtklocJnZHlp3qshOzq4dOgPl6IcI8l995nky-19NHEhD5Qwr39Wpsyeqyfu5mOqxsGhQl43evx-Ftjjz2oa8lZAe_7fyDKg", "width": 4032}], "place_id": "ChIJq-SOXwEKkEcRxmRCr3GBvzU", "plus_code": {"compound_code": "9GCP+99 Z\u00fcrich, Switzerland", "global_code": "8FVC9GCP+99"}, "price_level": 3, "rating": 4.1, "reference": "ChIJq-SOXwEKkEcRxmRCr3GBvzU", "scope": "GOOGLE", "types": ["restaurant", "food", "point_of_interest", "establishment"], "user_ratings_total": 168, "vicinity": "Pelikanstrasse 37, Z\u00fcrich"}, {"geometry": {"location": {"lat": 47.3687159, "lng": 8.535665900000001}, "viewport": {"northeast": {"lat": 47.37015708029151, "lng": 8.536780830291503}, "southwest": {"lat": 47.36745911970851, "lng": 8.534082869708499}}}, "icon": "https://maps.gstatic.com/mapfiles/place_api/icons/restaurant-71.png", "id": "6d87d90d657a376fecce6ddd4be5929fd1db1355", "name": "Roots", "opening_hours": {"open_now": false}, "photos": [{"height": 2272, "html_attributions": ["<a href=\"https://maps.google.com/maps/contrib/109472359037676675417\">Dxu QLIK</a>"], "photo_reference": "CmRaAAAAl3iqt-8C6DW8aNtVfVxhgBI43cQ-WDRk-bFF1IGba65uL66PSY4Xz2R3ojRGJvY_VsSHNh1gqcyN3DwpNAve62bW8MlXjU1TxVrLMFiu7RKwI8wg7-eGMqyoI3mfyk73EhChUuwYvngi053s7e74jKfbGhTgM1PGMZpd5i4eGZIUD4mcSpzmTw", "width": 4608}], "place_id": "ChIJh_A7jgEKkEcRul7_KZqKFFY", "plus_code": {"compound_code": "9G9P+F7 Z\u00fcrich, Switzerland", "global_code": "8FVC9G9P+F7"}, "price_level": 2, "rating": 4.4, "reference": "ChIJh_A7jgEKkEcRul7_KZqKFFY", "scope": "GOOGLE", "types": ["restaurant", "food", "point_of_interest", "establishment"], "user_ratings_total": 195, "vicinity": "Am Schanzengraben 19, Z\u00fcrich"}, {"geometry": {"location": {"lat": 47.3691425, "lng": 8.538430399999998}, "viewport": {"northeast": {"lat": 47.37053998029149, "lng": 8.539697830291502}, "southwest": {"lat": 47.3678420197085, "lng": 8.536999869708497}}}, "icon": "https://maps.gstatic.com/mapfiles/place_api/icons/restaurant-71.png", "id": "47f34d45b9484e2fdef40b93cfa12f59e8effbfe", "name": "Coco Grill & Bar", "opening_hours": {"open_now": false}, "photos": [{"height": 2976, "html_attributions": ["<a href=\"https://maps.google.com/maps/contrib/103588305209583434416\">Argyrios Tzakas</a>"], "photo_reference": "CmRaAAAAkQ24xbNrjA7DiInXuw-04AHEjLdvfxQZtIW54vH1JgD0NEa--lX2PySC9qc7X27tBLYyFpkfnJVFOiDDdPU9DWmKBbYN0Se1BoCn2ITHWSuehT30YhB1kC1qRSBAK7AaEhBxdwAJ-_Uy9rG1XxcnjWGkGhSGA2MIXj1zUMznl_xE7KrSK8Y9nQ", "width": 3968}], "place_id": "ChIJURjFVQAKkEcRTu5M5u1JwMY", "plus_code": {"compound_code": "9G9Q+M9 Z\u00fcrich, Switzerland", "global_code": "8FVC9G9Q+M9"}, "price_level": 4, "rating": 4.5, "reference": "ChIJURjFVQAKkEcRTu5M5u1JwMY", "scope": "GOOGLE", "types": ["bar", "restaurant", "food", "point_of_interest", "establishment"], "user_ratings_total": 217, "vicinity": "Bleicherweg 1a, Z\u00fcrich"}, {"geometry": {"location": {"lat": 47.3698535, "lng": 8.5343348}, "viewport": {"northeast": {"lat": 47.37126413029149, "lng": 8.535589480291504}, "southwest": {"lat": 47.3685661697085, "lng": 8.5328915197085}}}, "icon": "https://maps.gstatic.com/mapfiles/place_api/icons/restaurant-71.png", "id": "4c2243d0e4e23821b1135ae4e3db09dd28b7a196", "name": "Moudi", "opening_hours": {"open_now": false}, "photos": [{"height": 4912, "html_attributions": ["<a href=\"https://maps.google.com/maps/contrib/113037967401411492486\">Moudi</a>"], "photo_reference": "CmRaAAAAdgbm2FcwXMInapVyWM12Xi-lk71ThKDsu49zwjF7IMYDZnMg9kI1DPwmXR8e_Hinp8XErX_8_BSP9EFO1lcVLRVrtRZR-JDULm8gFGPUeNuF8DiLSxaOLuV1eK3Goh14EhApaOtKiWTimenHzo3td6aSGhRmrBycH7LUPmFFyFc5LizWa1uFWA", "width": 4912}], "place_id": "ChIJ_ZfYzQMKkEcRuNbfx29GnyE", "plus_code": {"compound_code": "9G9M+WP Z\u00fcrich, Switzerland", "global_code": "8FVC9G9M+WP"}, "price_level": 2, "rating": 4.2, "reference": "ChIJ_ZfYzQMKkEcRuNbfx29GnyE", "scope": "GOOGLE", "types": ["restaurant", "food", "point_of_interest", "establishment"], "user_ratings_total": 594, "vicinity": "Brandschenkestrasse 5, Z\u00fcrich"}, {"geometry": {"location": {"lat": 47.36866759999999, "lng": 8.5379229}, "viewport": {"northeast": {"lat": 47.3700965802915, "lng": 8.539155730291501}, "southwest": {"lat": 47.3673986197085, "lng": 8.536457769708498}}}, "icon": "https://maps.gstatic.com/mapfiles/place_api/icons/restaurant-71.png", "id": "a476385a8a312bcb1e69ea7b697c37caab7abb6e", "name": "Aura", "opening_hours": {"open_now": true}, "photos": [{"height": 1080, "html_attributions": ["<a href=\"https://maps.google.com/maps/contrib/105777573633371839319\">Aura</a>"], "photo_reference": "CmRaAAAAJfva8x9XmLhGt121ja-1OJg1qG5JGC-YFKVXoneCIja5-InUzFnvErQazN91X215bhlecfAttk_Ff2DEuG9heKMj_UYp-vs_zCZD4R1uWOu_OJyfByHro-26d_oNCa-2EhDxXc-TzJDPTwOCIr_RPTlgGhTbt0YqSe0CAKGjuTOUMWJbwnlqUg", "width": 1920}], "place_id": "ChIJmaaEsgEKkEcR5xBF6i0cdgM", "plus_code": {"compound_code": "9G9Q+F5 Z\u00fcrich, Switzerland", "global_code": "8FVC9G9Q+F5"}, "price_level": 3, "rating": 4.3, "reference": "ChIJmaaEsgEKkEcR5xBF6i0cdgM", "scope": "GOOGLE", "types": ["restaurant", "night_club", "bar", "food", "point_of_interest", "establishment"], "user_ratings_total": 1092, "vicinity": "Bleicherweg 5, Z\u00fcrich"}, {"geometry": {"location": {"lat": 47.3689317, "lng": 8.5383287}, "viewport": {"northeast": {"lat": 47.3702467802915, "lng": 8.539594930291502}, "southwest": {"lat": 47.3675488197085, "lng": 8.536896969708497}}}, "icon": "https://maps.gstatic.com/mapfiles/place_api/icons/restaurant-71.png", "id": "4464e786610030ec2520d06c7a5a0f42a35cf133", "name": "O'Tabe", "opening_hours": {"open_now": false}, "photos": [{"height": 489, "html_attributions": ["<a href=\"https://maps.google.com/maps/contrib/115596734425488398698\">O&#39;Tabe</a>"], "photo_reference": "CmRaAAAAUxeYWHXHC8K5sNxEMc-tNatUZALofotQZ8haOKAfn8qWdIEiD1T-nqdjYZ6cEWZtBBjR3NqFKaUXCmNZk6l1y8p8B8313Mm3avK7md3c5IR4COuGzb-RVaeOeWL7LbIjEhDo4Y-piHFzH6lZkRa8KbpMGhTb4X8WQpM6vJc9W_4Ela6qEX2jog", "width": 1024}], "place_id": "ChIJ_7H9UQAKkEcRNiUvmozNWN0", "plus_code": {"compound_code": "9G9Q+H8 Z\u00fcrich, Switzerland", "global_code": "8FVC9G9Q+H8"}, "price_level": 2, "rating": 4.6, "reference": "ChIJ_7H9UQAKkEcRNiUvmozNWN0", "scope": "GOOGLE", "types": ["restaurant", "food", "point_of_interest", "establishment"], "user_ratings_total": 34, "vicinity": "Talstrasse 20, Z\u00fcrich"}, {"geometry": {"location": {"lat": 47.3702056, "lng": 8.538864499999999}, "viewport": {"northeast": {"lat": 47.37157498029149, "lng": 8.5405354302915}, "southwest": {"lat": 47.3688770197085, "lng": 8.537837469708496}}}, "icon": "https://maps.gstatic.com/mapfiles/place_api/icons/restaurant-71.png", "id": "a4e1f50e6817d82e75d43dec30094946ecf53a9d", "name": "B\u00e4rengasse", "opening_hours": {"open_now": false}, "photos": [{"height": 683, "html_attributions": ["<a href=\"https://maps.google.com/maps/contrib/110991476766105772762\">B\u00e4rengasse Restaurant</a>"], "photo_reference": "CmRaAAAAmemRyJ83hcPDvyCIVAcoKj5E8oCA7RbXqOBISbhUCVRJ6OEum46LG8BUQWCatvix-_cqHKkdYFnEXNrbTc9dx7bRwvma4dYx3cgqDaYnFtjzw4P9bAGrDL24zjzaRFu3EhDV6WFyHtbECjYD7c1ehRjMGhRWrzcOMplhWeqSMe_2XtRY7UAI1Q", "width": 1024}], "place_id": "ChIJXT485wAKkEcRmYgz1gFYLGA", "plus_code": {"compound_code": "9GCQ+3G Z\u00fcrich, Switzerland", "global_code": "8FVC9GCQ+3G"}, "price_level": 4, "rating": 4.4, "reference": "ChIJXT485wAKkEcRmYgz1gFYLGA", "scope": "GOOGLE", "types": ["restaurant", "food", "point_of_interest", "establishment"], "user_ratings_total": 340, "vicinity": "Bahnhofstrasse 25, Z\u00fcrich"}, {"geometry": {"location": {"lat": 47.3698472, "lng": 8.534153100000001}, "viewport": {"northeast": {"lat": 47.3712285802915, "lng": 8.535452530291503}, "southwest": {"lat": 47.3685306197085, "lng": 8.532754569708498}}}, "icon": "https://maps.gstatic.com/mapfiles/place_api/icons/restaurant-71.png", "id": "b93d9250f36f2ed822ee0990361de7bc7dea2070", "name": "Di Gioia", "photos": [{"height": 3096, "html_attributions": ["<a href=\"https://maps.google.com/maps/contrib/117537483573807745249\">Tropinova AG</a>"], "photo_reference": "CmRaAAAAmuVgy-aK7F9__wgfrwXhJWSNxN-WT3AfBaT-hSyP-y9l5YU48knUrrIiEpYRKNd70sd35Z4DpvFZ-7h2VhSAkH40Oz9GU0UapB-Xo5TTkZaPco0AdKVcqHZVtDWiscMaEhBOVF-zpkkk6iF8y9xp2mfoGhTRF3AtyMeElsTRvaQZdJHJMFq-Kw", "width": 5504}], "place_id": "ChIJJ6pwywMKkEcRdpTt2K0A744", "plus_code": {"compound_code": "9G9M+WM Z\u00fcrich, Switzerland", "global_code": "8FVC9G9M+WM"}, "rating": 4.3, "reference": "ChIJJ6pwywMKkEcRdpTt2K0A744", "scope": "GOOGLE", "types": ["restaurant", "food", "point_of_interest", "establishment"], "user_ratings_total": 57, "vicinity": "Brandschenkestrasse 5, Z\u00fcrich"}, {"geometry": {"location": {"lat": 47.3715275, "lng": 8.5366381}, "viewport": {"northeast": {"lat": 47.3729129802915, "lng": 8.5379324302915}, "southwest": {"lat": 47.3702150197085, "lng": 8.535234469708497}}}, "icon": "https://maps.gstatic.com/mapfiles/place_api/icons/restaurant-71.png", "id": "d0909f6fc0f4eb765937eea35879761a4d7d1020", "name": "Simply Soup", "opening_hours": {"open_now": false}, "photos": [{"height": 2000, "html_attributions": ["<a href=\"https://maps.google.com/maps/contrib/100391497634153376515\">Simply Soup</a>"], "photo_reference": "CmRaAAAANX3jfrxKdWbXlfXkC97u2MywBIYhFLCke0rK-K0A59i-QxvBWr29Nijx5Okolr0ba0XJBHlMlALTGHYpuRsCIYAMJL9_b9nis9Xu9rvl4yJpsFpIsFKKfnGvO48fZfYJEhBs5y8AbZSLTpigk7YeUVtVGhQGfPnrGwHrDFWya-6iTYHgk8fpdQ", "width": 3000}], "place_id": "ChIJryQ-TgEKkEcRgouALqrVahk", "plus_code": {"compound_code": "9GCP+JM Z\u00fcrich, Switzerland", "global_code": "8FVC9GCP+JM"}, "rating": 4, "reference": "ChIJryQ-TgEKkEcRgouALqrVahk", "scope": "GOOGLE", "types": ["meal_takeaway", "restaurant", "food", "point_of_interest", "establishment"], "user_ratings_total": 39, "vicinity": "Pelikanstrasse 19, Z\u00fcrich"}, {"geometry": {"location": {"lat": 47.3714408, "lng": 8.537749199999999}, "viewport": {"northeast": {"lat": 47.3726938802915, "lng": 8.538941880291501}, "southwest": {"lat": 47.3699959197085, "lng": 8.536243919708497}}}, "icon": "https://maps.gstatic.com/mapfiles/place_api/icons/restaurant-71.png", "id": "497cf50123310556e8a52a8bca2b80e6859a116f", "name": "La Cucina", "opening_hours": {"open_now": false}, "photos": [{"height": 4048, "html_attributions": ["<a href=\"https://maps.google.com/maps/contrib/101885617272925677922\">Petra Eberle</a>"], "photo_reference": "CmRaAAAAp1o6wTLZEaOHEdn55_-GcT-vlHlxidBHYNqy_ocVf6LF4kkAiL8VozcLiDPIPnXtObjti6BN18a-PhmhO0f-whH0kQpkGfSb9PTbQt_rz7YcdKnfrqRkb-Mdd_SiyVOFEhA-idxQM9f3z7NEKgy8hc0VGhRf6NC1Bckexswh3jtJvTuXBGzJvg", "width": 3036}], "place_id": "ChIJnwYXNwEKkEcRzGd_WLeX5h0", "plus_code": {"compound_code": "9GCQ+H3 Z\u00fcrich, Switzerland", "global_code": "8FVC9GCQ+H3"}, "rating": 4.4, "reference": "ChIJnwYXNwEKkEcRzGd_WLeX5h0", "scope": "GOOGLE", "types": ["restaurant", "food", "point_of_interest", "establishment"], "user_ratings_total": 7, "vicinity": "N\u00fcschelerstrasse 6, Z\u00fcrich"}, {"geometry": {"location": {"lat": 47.3716391, "lng": 8.536362500000001}, "viewport": {"northeast": {"lat": 47.37294668029149, "lng": 8.537762430291503}, "southwest": {"lat": 47.37024871970849, "lng": 8.535064469708498}}}, "icon": "https://maps.gstatic.com/mapfiles/place_api/icons/restaurant-71.png", "id": "a852bb8f31b73ccc2836291e359a5d4cb909aab4", "name": "Kaufleuten", "opening_hours": {"open_now": true}, "photos": [{"height": 920, "html_attributions": ["<a href=\"https://maps.google.com/maps/contrib/116555442360728309406\">Kaufleuten (Klub, Kultur, Anl\u00e4sse, Bankette)</a>"], "photo_reference": "CmRaAAAAbJlcxOwVmOz9UDbxnQoD-hBcUbUv7buMSWsUdRctFQ2-2aOH5GGoZhZqTnqGARhXMEi7V17hgXo7KByzAH1QXK4DoY-VqzfAg_Rl2MsemESeES6gWwSmAKkV4Wmi7hMLEhB8DrjS4BUdALOJNQufdBi5GhSdJdK_CfpGPmZbxtY2cHa0IjElKQ", "width": 1384}], "place_id": "ChIJ7ZMwUgEKkEcRjV6Q7jc2y1I", "plus_code": {"compound_code": "9GCP+MG Z\u00fcrich, Switzerland", "global_code": "8FVC9GCP+MG"}, "price_level": 3, "rating": 4.1, "reference": "ChIJ7ZMwUgEKkEcRjV6Q7jc2y1I", "scope": "GOOGLE", "types": ["night_club", "bar", "restaurant", "food", "point_of_interest", "establishment"], "user_ratings_total": 2225, "vicinity": "Pelikanplatz 18, Z\u00fcrich"}, {"geometry": {"location": {"lat": 47.36908749999999, "lng": 8.5341954}, "viewport": {"northeast": {"lat": 47.3704249802915, "lng": 8.535478680291503}, "southwest": {"lat": 47.3677270197085, "lng": 8.532780719708498}}}, "icon": "https://maps.gstatic.com/mapfiles/place_api/icons/restaurant-71.png", "id": "2f3b3f038f7e20fa53bfcea6367b3f3ec6f118a6", "name": "Migg's Mix Sandwiches", "opening_hours": {"open_now": false}, "photos": [{"height": 1440, "html_attributions": ["<a href=\"https://maps.google.com/maps/contrib/112874641461299079946\">Wolfgang Jung</a>"], "photo_reference": "CmRaAAAAuTp6c9LOq1FOYs4RHh6enIDXzE0ild1yF0iv0Bo-DJe_FvX6BNkNNRMV3INqms-GgUhgQASJWnKsUv47VdJtycx4hdJs62utwe1I87WYJMexQ7h184uxSDcUKJsFUFR3EhCay3vzgxc5lW__afvn2mlUGhRXibIqQ2KWHsXA-jgE3rCqyIDwuA", "width": 2560}], "place_id": "ChIJh-1EMAIKkEcRhIjnpBXSXUU", "plus_code": {"compound_code": "9G9M+JM Z\u00fcrich, Switzerland", "global_code": "8FVC9G9M+JM"}, "rating": 4.7, "reference": "ChIJh-1EMAIKkEcRhIjnpBXSXUU", "scope": "GOOGLE", "types": ["meal_takeaway", "restaurant", "food", "point_of_interest", "establishment"], "user_ratings_total": 9, "vicinity": "Stockerstrasse 60, Z\u00fcrich"}, {"geometry": {"location": {"lat": 47.36938989999999, "lng": 8.5391362}, "viewport": {"northeast": {"lat": 47.37073888029149, "lng": 8.540485180291503}, "southwest": {"lat": 47.36804091970849, "lng": 8.537787219708498}}}, "icon": "https://maps.gstatic.com/mapfiles/place_api/icons/cafe-71.png", "id": "c18c59c6497276a11fda3907d9257ee899e8647f", "name": "Confiserie Spr\u00fcngli", "opening_hours": {"open_now": false}, "photos": [{"height": 720, "html_attributions": ["<a href=\"https://maps.google.com/maps/contrib/109727270849959417165\">Confiserie Spr\u00fcngli</a>"], "photo_reference": "CmRaAAAAN969YC2sWdtapkjLzoasXZPUf-rXbFudVlRm36VSXnCWhAOS01bOdu--xkyDEQPoyfoLgHXXEDnlEvxwGOwaYOABX300HVsujq6EefVtmuTlMm9szSS8BbrqNS5njL0LEhAms_c18KNSwzQGadb_6LjGGhRREvspvuzGNsctBfNIrurh6Ou1gg", "width": 720}], "place_id": "ChIJNQjv9gAKkEcRtWzpHgCaijI", "plus_code": {"compound_code": "9G9Q+QM Z\u00fcrich, Switzerland", "global_code": "8FVC9G9Q+QM"}, "price_level": 3, "rating": 4.5, "reference": "ChIJNQjv9gAKkEcRtWzpHgCaijI", "scope": "GOOGLE", "types": ["cafe", "restaurant", "food", "point_of_interest", "store", "establishment"], "user_ratings_total": 2310, "vicinity": "Paradeplatz, Bahnhofstrasse 21, Z\u00fcrich"}, {"geometry": {"location": {"lat": 47.3715564, "lng": 8.535508100000001}, "viewport": {"northeast": {"lat": 47.3729172302915, "lng": 8.536961080291503}, "southwest": {"lat": 47.3702192697085, "lng": 8.534263119708498}}}, "icon": "https://maps.gstatic.com/mapfiles/place_api/icons/restaurant-71.png", "id": "e008eb27239abc31e8d2e7d5fdeafbc45a2695ae", "name": "Negishi", "photos": [{"height": 591, "html_attributions": ["<a href=\"https://maps.google.com/maps/contrib/109291976858077582686\">Negishi Pelikanplatz</a>"], "photo_reference": "CmRaAAAAEtf9x2QxZhDP2i7i482P-jyMtA-xN-dcb8J01Ebh4QW70Y9Kr1EVcCF1fArTt-v8XlmDv0EOzFi88CGW7UNJawJRlVjh-5M7qiRvwMoiDEvXW4tZr6gr4_CkYz7ZYJr5EhCq_U6IcKQi2eYWm_Y0GufIGhSKa6Zjym-IM4kEEEcTLOXCMWbDZQ", "width": 1051}], "place_id": "ChIJb07e4gMKkEcRf2a6wsXmMNk", "plus_code": {"compound_code": "9GCP+J6 Z\u00fcrich, Switzerland", "global_code": "8FVC9GCP+J6"}, "rating": 4.4, "reference": "ChIJb07e4gMKkEcRf2a6wsXmMNk", "scope": "GOOGLE", "types": ["restaurant", "food", "point_of_interest", "establishment"], "user_ratings_total": 226, "vicinity": "Pelikanplatz 15, Z\u00fcrich"}], "status": "OK"}