{"html_attributions": [], "next_page_token": "CqQCIAEAANPwnqxoaznFKcZEJEcevsWoHNPLwxUNZNDtMYbp23VRO2-WlU1ax3j02_w9djq1P8GpDfXwn_baF4PJ3MNfMa5k5JQc5PZHv9qngB1KdO0l0GGRW-bbv9i4TVQAUFWjhpn_t8ufbn7Gvni3-kii8AGhN3hCabtVjdtZe4785fGGHfotcXUvyCQXqrE0w7pjDw9SFD7qBaGZ3QFrirqE_M8t8mfEEeSxb7-glBrxY9_pLL0dslNIPAXAPtHVZC1qS8N9hAevDNfvLah-MltDGRA5Q150PdbkQUhKrjebqiQvY6c-NUKAptmcaeyXmPWc-coGY8xAdOPvi2tbG4MyutLrwnxy_sznkd_5mtVO_gNXvx-5IhDe67k2FrJr2vHk-RIQml9ysAhXo4wHtFK28Qjh8RoUROOLAFCd6ulmJNq38VpyxDubQcI", "results": [{"geometry": {"location": {"lat": 47.35588010000001, "lng": 8.556429600000001}, "viewport": {"northeast": {"lat": 47.35720653029151, "lng": 8.557727030291503}, "southwest": {"lat": 47.35450856970851, "lng": 8.555029069708498}}}, "icon": "https://maps.gstatic.com/mapfiles/place_api/icons/restaurant-71.png", "id": "4ed3a1ee40234f0da070325733953e3723b46cf9", "name": "Metzg", "opening_hours": {"open_now": false}, "photos": [{"height": 3024, "html_attributions": ["<a href=\"https://maps.google.com/maps/contrib/106450589851489892853\">Franz Remigius Nescher</a>"], "photo_reference": "CmRaAAAAzxDC3KHRbUE-IEJmZnxb1sF-WTPQLDFcp2A1gygu-sEZRUQjoAoIqqy3LxIhfVk3Q5q7DjmFJomSwSI1F-lfVt1gbDF65aNrh58rcuCR1HcVSlP-lkXsrpwlJlHfNxQYEhDtLVUdVivfby-UBAgzQ0gGGhRRbasA537H2WIXh0GUxSKVao8zmg", "width": 4032}], "place_id": "ChIJ3RePpkinmkcRdw48OCGgMUc", "plus_code": {"compound_code": "9H44+9H Z\u00fcrich, Switzerland", "global_code": "8FVC9H44+9H"}, "rating": 4.6, "reference": "ChIJ3RePpkinmkcRdw48OCGgMUc", "scope": "GOOGLE", "types": ["restaurant", "food", "point_of_interest", "establishment"], "user_ratings_total": 93, "vicinity": "Seefeldstrasse 159, Z\u00fcrich"}, {"geometry": {"location": {"lat": 47.3555054, "lng": 8.5568337}, "viewport": {"northeast": {"lat": 47.3568264302915, "lng": 8.558116880291502}, "southwest": {"lat": 47.3541284697085, "lng": 8.555418919708497}}}, "icon": "https://maps.gstatic.com/mapfiles/place_api/icons/restaurant-71.png", "id": "be621c3937425f37cd5f0dfb96e6269b0dfa8763", "name": "Griechische Taverne", "opening_hours": {"open_now": false}, "photos": [{"height": 2976, "html_attributions": ["<a href=\"https://maps.google.com/maps/contrib/109735244870026237603\">Ren\u00e9 Hagmann</a>"], "photo_reference": "CmRaAAAAt813NAQTKK70IBreFrmnauezj9poh1hT9u7lBnhwMaN4PaTeOHsRgplBMId6brsue9vYQRX2wszZSp-_xTuaT3Np_FljCvk_kq1ifnhz5jSh3S8k8HPUdMqAGeVTkewhEhCX6ZNNLFO32SQSNUhIlHe_GhTYKStx2DLxB1TPtSwi3eaL76Utpg", "width": 3968}], "place_id": "ChIJjw6GH0anmkcRO1HYRFv7q3s", "plus_code": {"compound_code": "9H44+6P Z\u00fcrich, Switzerland", "global_code": "8FVC9H44+6P"}, "price_level": 2, "rating": 4.5, "reference": "ChIJjw6GH0anmkcRO1HYRFv7q3s", "scope": "GOOGLE", "types": ["restaurant", "food", "point_of_interest", "establishment"], "user_ratings_total": 144, "vicinity": "Seefeldstrasse 167, Z\u00fcrich"}, {"geometry": {"location": {"lat": 47.3566102, "lng": 8.5579415}, "viewport": {"northeast": {"lat": 47.3581117802915, "lng": 8.559204280291501}, "southwest": {"lat": 47.3554138197085, "lng": 8.556506319708497}}}, "icon": "https://maps.gstatic.com/mapfiles/place_api/icons/restaurant-71.png", "id": "8ad2711829db68062fdb3d5c32a26f4b514acf9c", "name": "Weisse Rose", "opening_hours": {"open_now": false}, "place_id": "ChIJSdx6Zu6nmkcRAMnTf3djcyQ", "plus_code": {"compound_code": "9H45+J5 Z\u00fcrich, Switzerland", "global_code": "8FVC9H45+J5"}, "reference": "ChIJSdx6Zu6nmkcRAMnTf3djcyQ", "scope": "GOOGLE", "types": ["restaurant", "food", "point_of_interest", "establishment"], "vicinity": "Gletscherstrasse 12, Z\u00fcrich"}, {"geometry": {"location": {"lat": 47.3554409, "lng": 8.5568972}, "viewport": {"northeast": {"lat": 47.35676138029149, "lng": 8.558179030291502}, "southwest": {"lat": 47.3540634197085, "lng": 8.555481069708497}}}, "icon": "https://maps.gstatic.com/mapfiles/place_api/icons/restaurant-71.png", "id": "72cf4928a620c028b9c442e01a6d31821733239c", "name": "BACKbAR", "opening_hours": {"open_now": false}, "photos": [{"height": 562, "html_attributions": ["<a href=\"https://maps.google.com/maps/contrib/103427591461218252555\">BACKbAR</a>"], "photo_reference": "CmRaAAAABmYnQcynvYOAf3IakXWW8kvGsu0HFoJ414LxuVKmDPcVQue1HBjyvdu1C_aDrVDUrc-EQrCP4wJlqpdq2kCKryBUHWDKHQ58sUyH61sHudPgvQ16Zzspg62vtJC2CF7nEhCshocE64SOhAN6ezLoVZucGhRuWoUP55-9PEu8AcKljqv0VCFsyw", "width": 1000}], "place_id": "ChIJS0OSIUanmkcRDs-1TSEXnbk", "plus_code": {"compound_code": "9H44+5Q Z\u00fcrich, Switzerland", "global_code": "8FVC9H44+5Q"}, "price_level": 2, "rating": 4.7, "reference": "ChIJS0OSIUanmkcRDs-1TSEXnbk", "scope": "GOOGLE", "types": ["bakery", "meal_takeaway", "cafe", "restaurant", "food", "point_of_interest", "store", "establishment"], "user_ratings_total": 110, "vicinity": "Seefeldstrasse 169, Z\u00fcrich"}, {"geometry": {"location": {"lat": 47.3570437, "lng": 8.5549196}, "viewport": {"northeast": {"lat": 47.35843138029149, "lng": 8.5563562302915}, "southwest": {"lat": 47.35573341970849, "lng": 8.553658269708496}}}, "icon": "https://maps.gstatic.com/mapfiles/place_api/icons/restaurant-71.png", "id": "0c41f8aaac1982f6752aeeba1b465389ac7a72c2", "name": "FREYTAG Confiserie Caf\u00e9 AG", "opening_hours": {"open_now": false}, "photos": [{"height": 3024, "html_attributions": ["<a href=\"https://maps.google.com/maps/contrib/112582491367296338314\">Felix Tausch</a>"], "photo_reference": "CmRaAAAAV3SRHEGoVsBXuYsrf1slkyg9FllLhdYSHBFOI45TuxK6k68_XS_XFvuUcYp1rgoPi9krmrJfTFr_bUDMInRrcrDKqBK7zin--7d1WBzyouU6I21xm-dNzNKRkVMnnpd5EhAdc8C8tJe0xvVXqNRrTjc3GhT89uQ6C2-vFpQPtTRMMZbmy2Smmg", "width": 5376}], "place_id": "ChIJ7XuyRASnmkcRg_ekLwI4t6E", "plus_code": {"compound_code": "9H43+RX Z\u00fcrich, Switzerland", "global_code": "8FVC9H43+RX"}, "rating": 4.3, "reference": "ChIJ7XuyRASnmkcRg_ekLwI4t6E", "scope": "GOOGLE", "types": ["restaurant", "bakery", "cafe", "food", "point_of_interest", "store", "establishment"], "user_ratings_total": 174, "vicinity": "Seefeldstrasse 144, Z\u00fcrich"}, {"geometry": {"location": {"lat": 47.3569041, "lng": 8.5586071}, "viewport": {"northeast": {"lat": 47.3582373802915, "lng": 8.559910080291502}, "southwest": {"lat": 47.3555394197085, "lng": 8.557212119708497}}}, "icon": "https://maps.gstatic.com/mapfiles/place_api/icons/restaurant-71.png", "id": "57d5f99b84bed1839dd3a78dbffeee13ca6d6192", "name": "Salon", "photos": [{"height": 797, "html_attributions": ["<a href=\"https://maps.google.com/maps/contrib/100365585609898460710\">Salon</a>"], "photo_reference": "CmRaAAAALO__g3xgT4U0UgKjGPLj4QMfZiuBwm0llxHNvqyR3uDgOQ6yogIM6Spr0aXa71DFfrSqsym0ajkeoPUYhACsIKTuJyKzuo5mtbRsVYx0iI2196ViRTKFA7EyDtHNI3haEhA7tCDdTxjZLxqBtDGZyd9XGhTt-_bUpuwRrQ6oEWgP1BoX_q3GSw", "width": 1200}], "place_id": "ChIJDw60_PenmkcRqnYJDN4kaFk", "plus_code": {"compound_code": "9H45+QC Z\u00fcrich, Switzerland", "global_code": "8FVC9H45+QC"}, "reference": "ChIJDw60_PenmkcRqnYJDN4kaFk", "scope": "GOOGLE", "types": ["restaurant", "food", "point_of_interest", "establishment"], "vicinity": "M\u00fchlebachstrasse 159, Z\u00fcrich"}, {"geometry": {"location": {"lat": 47.354859, "lng": 8.557524899999999}, "viewport": {"northeast": {"lat": 47.3561667302915, "lng": 8.558783030291503}, "southwest": {"lat": 47.3534687697085, "lng": 8.556085069708498}}}, "icon": "https://maps.gstatic.com/mapfiles/place_api/icons/restaurant-71.png", "id": "bb3168a74b631071778206daa10a2d7203d356c3", "name": "Schl\u00fcssel", "opening_hours": {"open_now": false}, "photos": [{"height": 3024, "html_attributions": ["<a href=\"https://maps.google.com/maps/contrib/117475160341531023284\">Matthias M. Mattenberger</a>"], "photo_reference": "CmRaAAAAO-EmRy2MZ-KrJn4f9tVzsd2vfyeQogfsOLWnccoRWue5IbUumOOxvE1wmaPwAkr9isFJbOtFXN9z6IMU7a02zUMkTS5N6VOusGf1S9xgeCqV23XOB4Q7D0pVmIBHdkOpEhA_v1YoTvb2-XUEaMt4L28bGhTTIQen8tZCA-lB_UWDZMejp1D8MQ", "width": 4032}], "place_id": "ChIJr3cMMEanmkcR6DZQQy7g7kQ", "plus_code": {"compound_code": "9H35+W2 Z\u00fcrich, Switzerland", "global_code": "8FVC9H35+W2"}, "price_level": 2, "rating": 4.7, "reference": "ChIJr3cMMEanmkcR6DZQQy7g7kQ", "scope": "GOOGLE", "types": ["restaurant", "food", "point_of_interest", "establishment"], "user_ratings_total": 116, "vicinity": "Seefeldstrasse 177, Z\u00fcrich"}, {"geometry": {"location": {"lat": 47.3549641, "lng": 8.5549877}, "viewport": {"northeast": {"lat": 47.3562885802915, "lng": 8.556288580291504}, "southwest": {"lat": 47.3535906197085, "lng": 8.5535906197085}}}, "icon": "https://maps.gstatic.com/mapfiles/place_api/icons/restaurant-71.png", "id": "2a6a442bdf2d8032b0124105f7de982bd8194025", "name": "Riviera", "opening_hours": {"open_now": false}, "photos": [{"height": 3456, "html_attributions": ["<a href=\"https://maps.google.com/maps/contrib/113241837955759146865\">Riviera</a>"], "photo_reference": "CmRaAAAAmi5BOR52w_RKC6wkM3KsQrdEkBJFFLAGZ5t6LPg7Bnqu5gkAU7fAAXWEnlYfKXsigui2gym-YL8xZm7fY4PRvHJE6x9vUBip0EPQN-VHmi7x3zKBH0w8fTVUBHoD7ca5EhDbIgz0SCITDUIxuW0gyE5uGhT6xItVsOhfU6By1720Dq9Yz6FKtQ", "width": 4608}], "place_id": "ChIJMcJQ4kWnmkcR3gnGW8HAyos", "plus_code": {"compound_code": "9H33+XX Z\u00fcrich, Switzerland", "global_code": "8FVC9H33+XX"}, "rating": 4.7, "reference": "ChIJMcJQ4kWnmkcR3gnGW8HAyos", "scope": "GOOGLE", "types": ["liquor_store", "restaurant", "food", "point_of_interest", "store", "establishment"], "user_ratings_total": 117, "vicinity": "Dufourstrasse 161, Z\u00fcrich"}, {"geometry": {"location": {"lat": 47.3546047, "lng": 8.5561407}, "viewport": {"northeast": {"lat": 47.3558993302915, "lng": 8.557555830291504}, "southwest": {"lat": 47.3532013697085, "lng": 8.5548578697085}}}, "icon": "https://maps.gstatic.com/mapfiles/place_api/icons/restaurant-71.png", "id": "b825ef2f778d21af61d6e71cdcbcae200550e6c7", "name": "f39", "opening_hours": {"open_now": false}, "photos": [{"height": 2212, "html_attributions": ["<a href=\"https://maps.google.com/maps/contrib/112829260300625779370\">f39</a>"], "photo_reference": "CmRaAAAAxivndhg-c4bbzvVMWmS5SZnLaVJ9VM5np7b_SjXITqOayef_bm2gKiDXvOJW27EL5maFbf3qIx0Vj9SYX5gcl5jf0FtyPRHpHDPw7og8iRHb6PmhXqWVeYtFHMbMQpEeEhBsCJeAWa60yvo_nPfMPxkqGhRlAWemMsHl7cUxGmJfgM4S2KrLyg", "width": 3318}], "place_id": "ChIJwVmBE0anmkcRQTZ1368tMQ0", "plus_code": {"compound_code": "9H34+RF Z\u00fcrich, Switzerland", "global_code": "8FVC9H34+RF"}, "rating": 4.7, "reference": "ChIJwVmBE0anmkcRQTZ1368tMQ0", "scope": "GOOGLE", "types": ["restaurant", "food", "point_of_interest", "establishment"], "user_ratings_total": 47, "vicinity": "Fr\u00f6hlichstrasse 39, Z\u00fcrich"}, {"geometry": {"location": {"lat": 47.3545435, "lng": 8.556007200000002}, "viewport": {"northeast": {"lat": 47.3558341302915, "lng": 8.557427180291501}, "southwest": {"lat": 47.35313616970851, "lng": 8.554729219708499}}}, "icon": "https://maps.gstatic.com/mapfiles/place_api/icons/restaurant-71.png", "id": "523a4110882b35ccbb0220ddfa29f830e9971ed8", "name": "Miracle", "opening_hours": {"open_now": false}, "photos": [{"height": 763, "html_attributions": ["<a href=\"https://maps.google.com/maps/contrib/100958446269113989624\">Restaurant Bar Miracle</a>"], "photo_reference": "CmRaAAAAfurEmKV2JB53H4vtFvOcE_q9v8DRUSSJFhOrGzi3P0JotVmgMEek2j63FBL3nR_7RhA-GRs-MsXDNgnK36Ggypbpb-zXYCFhqIiMSzBY9Rixu320WL2Hej5E_BckkvOHEhDTyczKOCvsrU6TktLo86KzGhS9Ks4RcTNtsMl4JRGTNHbg8mA9Sg", "width": 1020}], "place_id": "ChIJPadjE0anmkcRecMuhpORrow", "plus_code": {"compound_code": "9H34+RC Z\u00fcrich, Switzerland", "global_code": "8FVC9H34+RC"}, "price_level": 2, "rating": 4.6, "reference": "ChIJPadjE0anmkcRecMuhpORrow", "scope": "GOOGLE", "types": ["meal_takeaway", "restaurant", "food", "point_of_interest", "establishment"], "user_ratings_total": 376, "vicinity": "Fr\u00f6hlichstrasse 37, Z\u00fcrich"}, {"geometry": {"location": {"lat": 47.3582595, "lng": 8.5572722}, "viewport": {"northeast": {"lat": 47.35963483029149, "lng": 8.558702080291502}, "southwest": {"lat": 47.35693686970849, "lng": 8.556004119708497}}}, "icon": "https://maps.gstatic.com/mapfiles/place_api/icons/restaurant-71.png", "id": "21abbb7cd81837b4a29fb690ea12c2de6166e316", "name": "Blinde Kuh", "opening_hours": {"open_now": false}, "photos": [{"height": 1280, "html_attributions": ["<a href=\"https://maps.google.com/maps/contrib/102768391217423126836\">Tenacious Trekker</a>"], "photo_reference": "CmRaAAAAxYuEGBr_g_WZmRnaI8BqsVjcsYqAWr8E8-ReFVAL8riFGfb5U8WeHEV2_sK2zJjCcEFrrMru6oUXAYyyQD_wcZmVOMGZ1K6Gv46-x0EWoZBsX0pBK2pt2kWJOCHrlV9nEhAHex_uTT5jlMBeq63En_ERGhTqBm1dGIFatH_S0tMBT8s7ePCD5Q", "width": 1280}], "place_id": "ChIJ5fkhIUmnmkcRsKa_icA6Xwc", "plus_code": {"compound_code": "9H54+8W Z\u00fcrich, Switzerland", "global_code": "8FVC9H54+8W"}, "price_level": 2, "rating": 4.7, "reference": "ChIJ5fkhIUmnmkcRsKa_icA6Xwc", "scope": "GOOGLE", "types": ["restaurant", "food", "point_of_interest", "establishment"], "user_ratings_total": 660, "vicinity": "M\u00fchlebachstrasse 148, Z\u00fcrich"}, {"geometry": {"location": {"lat": 47.35824969999999, "lng": 8.5554933}, "viewport": {"northeast": {"lat": 47.3595734302915, "lng": 8.556742230291503}, "southwest": {"lat": 47.35687546970851, "lng": 8.554044269708498}}}, "icon": "https://maps.gstatic.com/mapfiles/place_api/icons/restaurant-71.png", "id": "2ab6ec10995cf912d4fab690f40ff83307fb5bfc", "name": "Nooba AG", "place_id": "ChIJMazY4-KnmkcRL6903ca61C8", "plus_code": {"compound_code": "9H54+75 Z\u00fcrich, Switzerland", "global_code": "8FVC9H54+75"}, "reference": "ChIJMazY4-KnmkcRL6903ca61C8", "scope": "GOOGLE", "types": ["restaurant", "food", "point_of_interest", "establishment"], "vicinity": "Riesbachstrasse 61, Z\u00fcrich"}, {"geometry": {"location": {"lat": 47.35824969999999, "lng": 8.5554933}, "viewport": {"northeast": {"lat": 47.3595734302915, "lng": 8.556742230291503}, "southwest": {"lat": 47.35687546970851, "lng": 8.554044269708498}}}, "icon": "https://maps.gstatic.com/mapfiles/place_api/icons/restaurant-71.png", "id": "e34e7aea59a9abe5be2833259ef8c5b77b3b0291", "name": "H\u00f6schgass Gastro AG", "photos": [{"height": 3024, "html_attributions": ["<a href=\"https://maps.google.com/maps/contrib/106032198756800921491\">Ank Kumar</a>"], "photo_reference": "CmRaAAAAd_EUdhMNp9sg4NhrPCs82uedIlcfkoeijZBTaaGEZRALOJSutislxHOt6Zt9DyUPCpHI2uLR2v0DrCQsxMl43edfxlx7a1Z0jctwUzS8YWKlmSAHtsFwIgzLFQcWsqxNEhCdqbRCv7-0InSYqvawduNmGhS9nD0RgI5DAJh-3MQ4xnkPMWJ9Gg", "width": 4032}], "place_id": "ChIJqQnH106nmkcRsFt8N4aZTA8", "plus_code": {"compound_code": "9H54+75 Z\u00fcrich, Switzerland", "global_code": "8FVC9H54+75"}, "rating": 1, "reference": "ChIJqQnH106nmkcRsFt8N4aZTA8", "scope": "GOOGLE", "types": ["restaurant", "food", "point_of_interest", "establishment"], "user_ratings_total": 1, "vicinity": "Riesbachstrasse 61, Z\u00fcrich"}, {"geometry": {"location": {"lat": 47.3582309, "lng": 8.5554013}, "viewport": {"northeast": {"lat": 47.3595659302915, "lng": 8.556695180291502}, "southwest": {"lat": 47.3568679697085, "lng": 8.553997219708497}}}, "icon": "https://maps.gstatic.com/mapfiles/place_api/icons/restaurant-71.png", "id": "97cb2782d3d301fcf0fe867cfc91d39c7cd8b0dd", "name": "Two Spice AG", "opening_hours": {"open_now": false}, "photos": [{"height": 1365, "html_attributions": ["<a href=\"https://maps.google.com/maps/contrib/110400245903220585687\">Two Spice AG</a>"], "photo_reference": "CmRaAAAA4_eKTfkxLSZvnoozMxTBrxNvbmhXTioDkIESo-0ck4ad1_jujFWJXFw4CktD5MD-wpg-qdTiyz6zVfFkhlmGaRE9jkNXmYX1CNhrp1dBDeh4yI6TfKwPnEdTRo0M9L_qEhB5HWwOnv4Su5yhYoZlO1XgGhTqV71CLysV0hQmyEORfCPHUqqCog", "width": 2048}], "place_id": "ChIJqQnH106nmkcRUrKbsSYDn08", "plus_code": {"compound_code": "9H54+75 Z\u00fcrich, Switzerland", "global_code": "8FVC9H54+75"}, "rating": 4.4, "reference": "ChIJqQnH106nmkcRUrKbsSYDn08", "scope": "GOOGLE", "types": ["restaurant", "food", "point_of_interest", "establishment"], "user_ratings_total": 19, "vicinity": "Riesbachstrasse 61, Z\u00fcrich"}, {"geometry": {"location": {"lat": 47.3545961, "lng": 8.5578374}, "viewport": {"northeast": {"lat": 47.3558971302915, "lng": 8.559071030291504}, "southwest": {"lat": 47.3531991697085, "lng": 8.5563730697085}}}, "icon": "https://maps.gstatic.com/mapfiles/place_api/icons/restaurant-71.png", "id": "8246089280da868a65d7604e671d28a327333fd3", "name": "Spuntino Caf\u00e8 Seefeldstrasse", "opening_hours": {"open_now": false}, "photos": [{"height": 2448, "html_attributions": ["<a href=\"https://maps.google.com/maps/contrib/106977961572523683565\">\u0418\u0440\u0438\u043d\u0430 \u0428\u0442\u0435\u0444\u0430\u043d</a>"], "photo_reference": "CmRaAAAAptGUxW9Gb_PRy9JLo-y6KJq-eM1t0K61R49ZSdyUjirXtZvVMqzlH2wairis_NGoX2Be6586jEdux2ngU3zohRL9Q_Hs0I1sOCupwBaqWxsIkPFx7A2_KC5zbBbP00tgEhBlsd1bdReP7dkoDA3FE0PaGhSPN7dthO5wmYbEgEnWcMBhdI9xdA", "width": 3264}], "place_id": "ChIJ7zTl3hCnmkcRZoGeB7fC5kI", "plus_code": {"compound_code": "9H35+R4 Z\u00fcrich, Switzerland", "global_code": "8FVC9H35+R4"}, "rating": 4.3, "reference": "ChIJ7zTl3hCnmkcRZoGeB7fC5kI", "scope": "GOOGLE", "types": ["restaurant", "food", "point_of_interest", "establishment"], "user_ratings_total": 8, "vicinity": "Seefeldstrasse 187, Z\u00fcrich"}, {"geometry": {"location": {"lat": 47.3580556, "lng": 8.5538889}, "viewport": {"northeast": {"lat": 47.3594435302915, "lng": 8.555340780291504}, "southwest": {"lat": 47.3567455697085, "lng": 8.552642819708499}}}, "icon": "https://maps.gstatic.com/mapfiles/place_api/icons/restaurant-71.png", "id": "c9f8d6b996e1cdd672895b02d5be2c4f822dcb49", "name": "Ristorante Tot\u00f2", "opening_hours": {"open_now": false}, "photos": [{"height": 1536, "html_attributions": ["<a href=\"https://maps.google.com/maps/contrib/110657502456125021227\">Ristorante Tot\u00f2</a>"], "photo_reference": "CmRaAAAAD5ZimV0adgOcAoyQabc295igXIWwcZXhJFmBe8ZIXbNjuffTXd2DmIxTNZqigVfM6dWLOm2il0wycTuEEFr_CaCaWk0b79zcBVmeNNt5YDy9_uvDnlRtXtXAsAQKpm9NEhA2VRlyk4zWIEdQLsRIKNSxGhRwRDVLQHjBEmi-Gf9jDhhL6IChaw", "width": 2048}], "place_id": "ChIJnehQHE-nmkcRIsHFFEjgA30", "plus_code": {"compound_code": "9H53+6H Z\u00fcrich, Switzerland", "global_code": "8FVC9H53+6H"}, "rating": 4.1, "reference": "ChIJnehQHE-nmkcRIsHFFEjgA30", "scope": "GOOGLE", "types": ["night_club", "bar", "restaurant", "food", "point_of_interest", "establishment"], "user_ratings_total": 517, "vicinity": "Seefeldstrasse 124, Z\u00fcrich"}, {"geometry": {"location": {"lat": 47.3571499, "lng": 8.5531072}, "viewport": {"northeast": {"lat": 47.3584792302915, "lng": 8.554401880291504}, "southwest": {"lat": 47.3557812697085, "lng": 8.5517039197085}}}, "icon": "https://maps.gstatic.com/mapfiles/place_api/icons/restaurant-71.png", "id": "e23e5300d13d9ba901bc0c688aff40a147c48a90", "name": "Thai Takeaway", "opening_hours": {"open_now": false}, "photos": [{"height": 4032, "html_attributions": ["<a href=\"https://maps.google.com/maps/contrib/105357512738721962091\">K.J.</a>"], "photo_reference": "CmRaAAAAaO_h2syzXSIcJRL8A_eqkQBeiKGo1Wv16vaml2_zoEDuG1A2-XQtuK-1YzklwBhlU6vDnMOZoyq2QiRkTNgqeeSoxXYhxuwJZfuYhaY3EnWqxHaxBxCXPjej9SetG-fZEhAL3eKlgFYg8CQIAXULovX4GhT_LqLwoHBmx608abkfBkOHpHgtQw", "width": 3024}], "place_id": "ChIJPcJMC0-nmkcREQjYpq3QuY4", "plus_code": {"compound_code": "9H43+V6 Z\u00fcrich, Switzerland", "global_code": "8FVC9H43+V6"}, "rating": 4.4, "reference": "ChIJPcJMC0-nmkcREQjYpq3QuY4", "scope": "GOOGLE", "types": ["meal_takeaway", "restaurant", "food", "point_of_interest", "establishment"], "user_ratings_total": 8, "vicinity": "Dufourstrasse 131, Z\u00fcrich"}, {"geometry": {"location": {"lat": 47.358316, "lng": 8.554279000000001}, "viewport": {"northeast": {"lat": 47.3596167802915, "lng": 8.555500330291503}, "southwest": {"lat": 47.3569188197085, "lng": 8.552802369708498}}}, "icon": "https://maps.gstatic.com/mapfiles/place_api/icons/restaurant-71.png", "id": "2cb412a398deb1ffd36bf6edf788113549b882e8", "name": "Yooji\u2019s Seefeld", "opening_hours": {"open_now": false}, "photos": [{"height": 3545, "html_attributions": ["<a href=\"https://maps.google.com/maps/contrib/118133992487814939263\">Yooji\u2019s Seefeld</a>"], "photo_reference": "CmRaAAAABWps2kEA0-m8LuAN1r87UjYwes_bU9Wf9iu-X4FjRFyX4e6h932hju0Mv_eCkIM49LGPBIat44WCM_mpK0C3yOH_wwLuILxOSm6kXoZRXgW2DF9y5Fkza0SVWPOiZVpCEhBttJW9T255ouRa2CTVO6K7GhQzifEUnlSkbu1-oOUWdmio14Z6TQ", "width": 5216}], "place_id": "ChIJbWMFPxynmkcRwVmaXDuB7ro", "plus_code": {"compound_code": "9H53+8P Z\u00fcrich, Switzerland", "global_code": "8FVC9H53+8P"}, "price_level": 3, "rating": 4.1, "reference": "ChIJbWMFPxynmkcRwVmaXDuB7ro", "scope": "GOOGLE", "types": ["meal_takeaway", "restaurant", "food", "point_of_interest", "establishment"], "user_ratings_total": 258, "vicinity": "Seefeldstrasse 115, Z\u00fcrich"}, {"geometry": {"location": {"lat": 47.35723749999999, "lng": 8.552825599999998}, "viewport": {"northeast": {"lat": 47.3585985802915, "lng": 8.554164980291503}, "southwest": {"lat": 47.3559006197085, "lng": 8.551467019708499}}}, "icon": "https://maps.gstatic.com/mapfiles/place_api/icons/cafe-71.png", "id": "01b6342ef6a3b898afef2bf13bb8efdebe0a4a4b", "name": "Maison 33 Cafe & Bistro", "opening_hours": {"open_now": false}, "photos": [{"height": 1863, "html_attributions": ["<a href=\"https://maps.google.com/maps/contrib/110936377140308710181\">Maison 33 Cafe &amp; Bistro</a>"], "photo_reference": "CmRZAAAAcEXeuSHa3gB5FQVXfGTe3hW2Q_wEaUl9QczXRb94TaOKHkjzTBxDelSNJXg2IROJCvei-Z1mDiVWnV9NzAcv2DEW0VnZvwPE9DiN3VOuYpTuPx2H-AECmxG07sy4EIxAEhCudHeC6teD3iGP7g2cXyzrGhQ8ffwzF2wmKOscY4XDc93WjqBZug", "width": 1863}], "place_id": "ChIJCfC0baCnmkcR6S1EXsHKHPQ", "plus_code": {"compound_code": "9H43+V4 Z\u00fcrich, Switzerland", "global_code": "8FVC9H43+V4"}, "rating": 4.8, "reference": "ChIJCfC0baCnmkcR6S1EXsHKHPQ", "scope": "GOOGLE", "types": ["cafe", "restaurant", "food", "point_of_interest", "store", "establishment"], "user_ratings_total": 21, "vicinity": "H\u00f6schgasse 33, Z\u00fcrich"}, {"geometry": {"location": {"lat": 47.358482, "lng": 8.553982800000002}, "viewport": {"northeast": {"lat": 47.3598057802915, "lng": 8.555265030291503}, "southwest": {"lat": 47.3571078197085, "lng": 8.552567069708498}}}, "icon": "https://maps.gstatic.com/mapfiles/place_api/icons/bar-71.png", "id": "f2d1b09409a22e15437fcedbba588edcd32f9a44", "name": "D-Vino", "opening_hours": {"open_now": false}, "photos": [{"height": 1365, "html_attributions": ["<a href=\"https://maps.google.com/maps/contrib/105280197442585453254\">D-Vino</a>"], "photo_reference": "CmRaAAAABuKdcS5GTwDKhMiY9diozn2ncx21ak4XlUMUi0ZTNJvmyrvx_a-sTRPvcP5lvhgFxS_3fnKot0Ehjjn6LLBX5r1imJclNVoMO4vt6WMHRZEEBRiTw9s90xc9D6iv66vSEhCYn8xdJcbxy34ukKPfWFWbGhTgKHKZ54uU3ZPagpMOH_NdDmAEOw", "width": 2048}], "place_id": "ChIJ0-wg406nmkcRCy-vKdrBQ5s", "plus_code": {"compound_code": "9H53+9H Z\u00fcrich, Switzerland", "global_code": "8FVC9H53+9H"}, "price_level": 2, "rating": 4.2, "reference": "ChIJ0-wg406nmkcRCy-vKdrBQ5s", "scope": "GOOGLE", "types": ["bar", "restaurant", "food", "point_of_interest", "establishment"], "user_ratings_total": 137, "vicinity": "Seefeldstrasse 113, Z\u00fcrich"}], "status": "OK"}