{"html_attributions": [], "next_page_token": "CqQCIAEAANkJhclj3q_PaK3Wm2muSYCmBinNCCMvE77RuySRSnPasGQMkPD1a4Wfg1li5tbMEUgV5qwpQ8i7bWlKbFh9ei3x62Rsi2tF-Ryuw_ohtoNyI0nLM6J5ZUVvSmJnkEdCdyddLSKXiMI12DINzvYnXKS5qw0on6SEVqdS5RWzzJ9c1k70yhhBuWAsT3gKhycMO4KmM0DY_Rw3jY3qejSpG2X4645fAOQ6W9izCcFpiH1GDfNW3-EkP1V4GRQoc1r4zUE3E5DQIpdyguj7HCieQfO0RGMR18qLcyILMNPmY8IuqS1Za2UX2vqCNDnMmWwNuGAmrVq4xo--bk-HSpBmAmv7Ff5HvHP88DDb4oP0e1ZbWf8diKphpO6tEhXOT1vAMRIQdKOigYQZwjXqdJhhn0_MYxoUqryR_KUmxPrm5B1b4wZjPXNxa2c", "results": [{"geometry": {"location": {"lat": 47.3779102, "lng": 8.5102313}, "viewport": {"northeast": {"lat": 47.37921258029149, "lng": 8.511621230291501}, "southwest": {"lat": 47.37651461970849, "lng": 8.508923269708497}}}, "icon": "https://maps.gstatic.com/mapfiles/place_api/icons/restaurant-71.png", "id": "35588a792d0450ca4ebeb74e23ae567539e73e72", "name": "Kuhn", "opening_hours": {"open_now": false}, "photos": [{"height": 1278, "html_attributions": ["<a href=\"https://maps.google.com/maps/contrib/101907294973936681208\">Kuhn Back &amp; Gastro AG</a>"], "photo_reference": "CmRaAAAAhUtZUEvhuEPQGC7YyMJQkgzRyx586G5IHPn58Ed5F-WJSs11U6BNzQfvf2vAHUlvtFz2OmjZczEqIVmMXJE1hdVX62tIdosNKia31HprpaOno4rsgPnVliG4ej2_hVB4EhAuoaup7ZwUwFdl9l-wqSPPGhRtsQrFLZGxuhwCbUIM6mtWRWMxnQ", "width": 1920}], "place_id": "ChIJ1_ozJyUKkEcRH5bdfeWxip0", "plus_code": {"compound_code": "9GH6+53 Z\u00fcrich, Switzerland", "global_code": "8FVC9GH6+53"}, "price_level": 2, "rating": 4.5, "reference": "ChIJ1_ozJyUKkEcRH5bdfeWxip0", "scope": "GOOGLE", "types": ["bakery", "cafe", "restaurant", "food", "point_of_interest", "store", "establishment"], "user_ratings_total": 140, "vicinity": "Hardaustrasse 5, Z\u00fcrich"}, {"geometry": {"location": {"lat": 47.3779255, "lng": 8.510574199999999}, "viewport": {"northeast": {"lat": 47.37922768029149, "lng": 8.511927830291501}, "southwest": {"lat": 47.37652971970849, "lng": 8.509229869708497}}}, "icon": "https://maps.gstatic.com/mapfiles/place_api/icons/restaurant-71.png", "id": "d07f64572853ccb90550fefe22c0f306756f4e86", "name": "Z\u00fcri Bistro", "opening_hours": {"open_now": false}, "photos": [{"height": 3024, "html_attributions": ["<a href=\"https://maps.google.com/maps/contrib/117489946648940999380\">Daniel Prieto</a>"], "photo_reference": "CmRaAAAADkafeV7FR7lFFpWWXabj0KWRL2TShmvPBCbkgvZ6_ZKDxojKbKhC6x14qf07suAuf97lIiCiTVNvak2qngyN_gILDRnbctp2uT2EjsDYbpLV3xNnFKGOf1dtDv-5XRiSEhDRrD1v8HC_6uAtcIpu8nKZGhQSwzOL10ZjloHbCWv0OpXpRfcz-w", "width": 4032}], "place_id": "ChIJy1oG2SQKkEcRGkIqfSqQNTs", "plus_code": {"compound_code": "9GH6+56 Z\u00fcrich, Switzerland", "global_code": "8FVC9GH6+56"}, "price_level": 1, "rating": 4.6, "reference": "ChIJy1oG2SQKkEcRGkIqfSqQNTs", "scope": "GOOGLE", "types": ["meal_takeaway", "restaurant", "food", "point_of_interest", "establishment"], "user_ratings_total": 213, "vicinity": "Badenerstrasse 343, Z\u00fcrich"}, {"geometry": {"location": {"lat": 47.37826399999999, "lng": 8.510239}, "viewport": {"northeast": {"lat": 47.3796129802915, "lng": 8.511587980291504}, "southwest": {"lat": 47.3769150197085, "lng": 8.508890019708499}}}, "icon": "https://maps.gstatic.com/mapfiles/place_api/icons/shopping-71.png", "id": "a926fab93b662d43d895a09bda9daeee9f978e55", "name": "k kiosk", "opening_hours": {"open_now": false}, "photos": [{"height": 969, "html_attributions": ["<a href=\"https://maps.google.com/maps/contrib/110811566354654839996\">k kiosk</a>"], "photo_reference": "CmRZAAAA79AITfB_fShmJcgn79RD4ejBCmX18PHVgZv8C5kTUUdeR6KIaseMky_Qz-kLPj0dwDok52TxE4-dGC8aJ65AJQWewn_aeFAq4VvvjiyQ9Xqbpko2kcRwkGp-XVyRRNO9EhA_xSbP4Txkr43hqQDMCKWJGhSZ13xStcY5b6MWYeCBkgAmdsYOUQ", "width": 969}], "place_id": "ChIJE1Vycx4LkEcRq_L0Rd7tJRw", "plus_code": {"compound_code": "9GH6+83 Z\u00fcrich, Switzerland", "global_code": "8FVC9GH6+83"}, "rating": 4, "reference": "ChIJE1Vycx4LkEcRq_L0Rd7tJRw", "scope": "GOOGLE", "types": ["convenience_store", "liquor_store", "restaurant", "food", "point_of_interest", "store", "establishment"], "user_ratings_total": 8, "vicinity": "Albisriederplatz Tramwartehalle, Z\u00fcrich"}, {"geometry": {"location": {"lat": 47.3781918, "lng": 8.510869999999999}, "viewport": {"northeast": {"lat": 47.3795144802915, "lng": 8.512179380291501}, "southwest": {"lat": 47.37681651970851, "lng": 8.509481419708496}}}, "icon": "https://maps.gstatic.com/mapfiles/place_api/icons/restaurant-71.png", "id": "b2de5e4a1661368525338f4d9a552f13abf1cc14", "name": "Hardhof", "opening_hours": {"open_now": false}, "photos": [{"height": 3024, "html_attributions": ["<a href=\"https://maps.google.com/maps/contrib/103973600490157995691\">Gaby Kotliar</a>"], "photo_reference": "CmRaAAAAph-9NQJQ2ZNBfADoTBdsPmaKflKOOD2_zyeR7-1NqoPG2KE7aMVSnkTH2Xz0bXOmyvkIJwjHpAKXUgttAfU6zeH8U_msaMr7bC4XyIsCVcPQ5jc1Q7PRTGZs9prjVW_1EhBY1gJJxvxffFMHwv0R82nNGhT0RCjOAcr7p34kIfbqra_-cZmbJg", "width": 4032}], "place_id": "ChIJiWSc0CQKkEcR9jS9SzslYUE", "plus_code": {"compound_code": "9GH6+78 Z\u00fcrich, Switzerland", "global_code": "8FVC9GH6+78"}, "price_level": 2, "rating": 4.5, "reference": "ChIJiWSc0CQKkEcR9jS9SzslYUE", "scope": "GOOGLE", "types": ["restaurant", "food", "point_of_interest", "establishment"], "user_ratings_total": 355, "vicinity": "Badenerstrasse 344, Z\u00fcrich"}, {"geometry": {"location": {"lat": 47.3783485, "lng": 8.509525}, "viewport": {"northeast": {"lat": 47.3797475802915, "lng": 8.510967730291501}, "southwest": {"lat": 47.3770496197085, "lng": 8.508269769708496}}}, "icon": "https://maps.gstatic.com/mapfiles/place_api/icons/restaurant-71.png", "id": "76a9994a79e22bff0bac7ed83b084f210d87667d", "name": "Suan Long", "opening_hours": {"open_now": false}, "photos": [{"height": 1080, "html_attributions": ["<a href=\"https://maps.google.com/maps/contrib/117108509030663523168\">Jey Seelan</a>"], "photo_reference": "CmRaAAAAeY9UHwAnXFdaXUXsenkl3ZD1nx96u9Z5EAZS-thJQ2m93Fe5vs13OtSnIgxKF3wS4FMAuQLlAIp0EjtPQCYUnq7EDfxMe6Ode7GbA7TKQPnCJ3ViGcQo3KAcUjewAVlzEhDMrVg29lwrPpH0jYyE6m9eGhTLu_ch49Zq74uraV54mgKvlQrwDA", "width": 1920}], "place_id": "ChIJ29D1MCUKkEcR3iiFwsoQzeo", "plus_code": {"compound_code": "9GH5+8R Z\u00fcrich, Switzerland", "global_code": "8FVC9GH5+8R"}, "rating": 4, "reference": "ChIJ29D1MCUKkEcR3iiFwsoQzeo", "scope": "GOOGLE", "types": ["restaurant", "food", "point_of_interest", "establishment"], "user_ratings_total": 77, "vicinity": "Badenerstrasse 355, Z\u00fcrich"}, {"geometry": {"location": {"lat": 47.3782758, "lng": 8.5087026}, "viewport": {"northeast": {"lat": 47.3794946802915, "lng": 8.510110080291502}, "southwest": {"lat": 47.3767967197085, "lng": 8.507412119708498}}}, "icon": "https://maps.gstatic.com/mapfiles/place_api/icons/restaurant-71.png", "id": "f7087630d521229b5a4a7d12c8f577d17a263dff", "name": "Iberia Tapas", "opening_hours": {"open_now": false}, "photos": [{"height": 933, "html_attributions": ["<a href=\"https://maps.google.com/maps/contrib/114931977109934033546\">Iberia Tapas</a>"], "photo_reference": "CmRaAAAAyoI3GBn25AZG1Gqb7Yp-TY2nqkLE96662d0_56I87iNP1rLmATWtt3fTzhweLDNhEYB6B-GL1pQApjG0OLkjpsUY8fuO5QJI2u0cxiHxmXRZkwTtYoVog9rEG7bG91hgEhC42s2JM5Ooqqkb9pjX4VYfGhSOlFb_oBX4Y3SZzSf3Ve2OMsiB2g", "width": 1920}], "place_id": "ChIJf-tA2IgLkEcRfAbrxK6FyzQ", "plus_code": {"compound_code": "9GH5+8F Z\u00fcrich, Switzerland", "global_code": "8FVC9GH5+8F"}, "rating": 4.6, "reference": "ChIJf-tA2IgLkEcRfAbrxK6FyzQ", "scope": "GOOGLE", "types": ["bar", "restaurant", "food", "point_of_interest", "establishment"], "user_ratings_total": 32, "vicinity": "Albisriederstrasse 16, Z\u00fcrich"}, {"geometry": {"location": {"lat": 47.3784855, "lng": 8.5093026}, "viewport": {"northeast": {"lat": 47.3799045302915, "lng": 8.510717880291503}, "southwest": {"lat": 47.3772065697085, "lng": 8.508019919708499}}}, "icon": "https://maps.gstatic.com/mapfiles/place_api/icons/restaurant-71.png", "id": "132cc1df643b86a57c0a675364061777daf3c6b7", "name": "Stoller", "opening_hours": {"open_now": false}, "photos": [{"height": 480, "html_attributions": ["<a href=\"https://maps.google.com/maps/contrib/115720096563868054005\">Stoller</a>"], "photo_reference": "CmRaAAAAalBlJd8C3uQMkCJSxF3rD609wVEA_19NmefCtYr5O-QAcypOYPEDz2QW5fSaD5ER9Xlu0kktkTVAikZAe5C3tRlSovk7gZ7gsROM5KcItbCWT80LIIdI5XpwzMZhcGqVEhB-x0rrzs9CuKfrVqIX7w7AGhRotoYSLTElUrYQk1Kge3jld3Z-6Q", "width": 640}], "place_id": "ChIJays7NCUKkEcRpqieuBdP9Mo", "plus_code": {"compound_code": "9GH5+9P Z\u00fcrich, Switzerland", "global_code": "8FVC9GH5+9P"}, "price_level": 2, "rating": 4.2, "reference": "ChIJays7NCUKkEcRpqieuBdP9Mo", "scope": "GOOGLE", "types": ["restaurant", "food", "point_of_interest", "establishment"], "user_ratings_total": 106, "vicinity": "Badenerstrasse 357, Z\u00fcrich"}, {"geometry": {"location": {"lat": 47.378567, "lng": 8.510088}, "viewport": {"northeast": {"lat": 47.3798591302915, "lng": 8.511448280291503}, "southwest": {"lat": 47.3771611697085, "lng": 8.508750319708499}}}, "icon": "https://maps.gstatic.com/mapfiles/place_api/icons/restaurant-71.png", "id": "03a774fd2b82c921fb4e35944134cb9c0b324792", "name": "New Point", "opening_hours": {"open_now": true}, "photos": [{"height": 480, "html_attributions": ["<a href=\"https://maps.google.com/maps/contrib/105256415006051768260\">New Point</a>"], "photo_reference": "CmRaAAAArQqjsKv7g929weFA4yK0wRCUcJsZSc5-3lUucYXosHaSnTEieMvcLerHoJIwmsakLQf5G4LohAX4R_zb2-2n_dW15UqyhxI-kcUkiL2AS2fyfDUXQCy-RK8dSXg9Cq8dEhCo-UvqCTNbjj4sYCIMIdtqGhRPa3SDxild2JDBLRed-0Lo7wYrbw", "width": 960}], "place_id": "ChIJ8w7wKyUKkEcRF-Zi8pWrAP0", "plus_code": {"compound_code": "9GH6+C2 Z\u00fcrich, Switzerland", "global_code": "8FVC9GH6+C2"}, "price_level": 2, "rating": 4, "reference": "ChIJ8w7wKyUKkEcRF-Zi8pWrAP0", "scope": "GOOGLE", "types": ["restaurant", "food", "point_of_interest", "establishment"], "user_ratings_total": 343, "vicinity": "Albisrieder - Platz 5, Z\u00fcrich"}, {"geometry": {"location": {"lat": 47.3774856, "lng": 8.512566999999999}, "viewport": {"northeast": {"lat": 47.3788074802915, "lng": 8.513891930291502}, "southwest": {"lat": 47.3761095197085, "lng": 8.511193969708497}}}, "icon": "https://maps.gstatic.com/mapfiles/place_api/icons/restaurant-71.png", "id": "82cf67dd6a53cfcb77ff83fef4bb98c669cde6f0", "name": "Huusbeiz", "opening_hours": {"open_now": false}, "photos": [{"height": 2304, "html_attributions": ["<a href=\"https://maps.google.com/maps/contrib/108975932706627314606\">Huusbeiz</a>"], "photo_reference": "CmRaAAAAjV8_F2B2-JP24gAco9PHZC7KRWXUiTTOefxv6GMyl3JJgdOIGhasg05DbUX1cawt331FPK9FDASDsmxJK_00f9Jo0qqvCnCxi52V54HQg_TY0Ch5h6P-e7iZwQSftibrEhDEw3wS9bztI62KIyCh3tIoGhTNbqbThdjRKGhmmbIXtA3ZX427Pw", "width": 3456}], "place_id": "ChIJN1HfnSQKkEcRORLDyUnrUfo", "plus_code": {"compound_code": "9GG7+X2 Z\u00fcrich, Switzerland", "global_code": "8FVC9GG7+X2"}, "rating": 4.7, "reference": "ChIJN1HfnSQKkEcRORLDyUnrUfo", "scope": "GOOGLE", "types": ["restaurant", "food", "point_of_interest", "establishment"], "user_ratings_total": 171, "vicinity": "Badenerstrasse 310, Z\u00fcrich"}, {"geometry": {"location": {"lat": 47.3775294, "lng": 8.51278}, "viewport": {"northeast": {"lat": 47.3788235802915, "lng": 8.514209130291501}, "southwest": {"lat": 47.3761256197085, "lng": 8.511511169708497}}}, "icon": "https://maps.gstatic.com/mapfiles/place_api/icons/restaurant-71.png", "id": "e748f753958d13740819fb59ed7ed882ce1c5e69", "name": "eNDi Burger & Coffee", "opening_hours": {"open_now": false}, "photos": [{"height": 2560, "html_attributions": ["<a href=\"https://maps.google.com/maps/contrib/109825887435413672047\">eNDi Burger &amp; Coffee</a>"], "photo_reference": "CmRaAAAA0pdGc4yqtU47P7RDAmvhOnai31i-kKFM3bk9z5uyRXwwOYP_X0fzpjpB7f0PTyLPskxDtoXP6KCvRM7lO39xekcJyp6G7mXYs8RPU1UTtEPBJJ2YW_aHA2K_slwiRD9rEhCxHSRPpt9lz6slJ2_yTwZwGhTAeBMcLsj_qzxFnknhyaX2LBAX4w", "width": 3840}], "place_id": "ChIJAaqaoekLkEcRxaX5unPWmBI", "plus_code": {"compound_code": "9GH7+24 Z\u00fcrich, Switzerland", "global_code": "8FVC9GH7+24"}, "rating": 4.4, "reference": "ChIJAaqaoekLkEcRxaX5unPWmBI", "scope": "GOOGLE", "types": ["restaurant", "food", "point_of_interest", "establishment"], "user_ratings_total": 259, "vicinity": "Zypressenstrasse 49, Z\u00fcrich"}, {"geometry": {"location": {"lat": 47.3772688, "lng": 8.5130461}, "viewport": {"northeast": {"lat": 47.3786717302915, "lng": 8.514311530291502}, "southwest": {"lat": 47.3759737697085, "lng": 8.511613569708498}}}, "icon": "https://maps.gstatic.com/mapfiles/place_api/icons/restaurant-71.png", "id": "f58621c9409b5c8c6d4034874009639cab491c8c", "name": "Pho 50", "opening_hours": {"open_now": false}, "photos": [{"height": 800, "html_attributions": ["<a href=\"https://maps.google.com/maps/contrib/103092399749185439032\">Metall Schaedel</a>"], "photo_reference": "CmRaAAAAYBLk1JYCsaQdftELQPfmcaBtjJ9_L_vWKRaJ1lisHSQ4X34LPPNmbkPFv2qqjnibf3GVPlZTaXUrWxoR2WCoRVu44wPkTgtMnLhSKcidhw9gAjRyiBdWKs-ibH2EngvvEhAabPzMjAtXC_2pl3zn8CM_GhRdqCFKr6ICQj4y2fo4kNdPtho-lQ", "width": 1200}], "place_id": "ChIJxSaEnyQKkEcRlSYolkcqxa8", "plus_code": {"compound_code": "9GG7+W6 Z\u00fcrich, Switzerland", "global_code": "8FVC9GG7+W6"}, "price_level": 2, "rating": 4.4, "reference": "ChIJxSaEnyQKkEcRlSYolkcqxa8", "scope": "GOOGLE", "types": ["restaurant", "food", "point_of_interest", "establishment"], "user_ratings_total": 256, "vicinity": "Zypressenstrasse 50, Z\u00fcrich"}, {"geometry": {"location": {"lat": 47.3773531, "lng": 8.5130672}, "viewport": {"northeast": {"lat": 47.37874043029149, "lng": 8.514360130291504}, "southwest": {"lat": 47.37604246970849, "lng": 8.511662169708499}}}, "icon": "https://maps.gstatic.com/mapfiles/place_api/icons/restaurant-71.png", "id": "3c9117d8f011153e0933a36931e7c467b4378c28", "name": "Cvijanovic Bistro", "photos": [{"height": 1960, "html_attributions": ["<a href=\"https://maps.google.com/maps/contrib/109002897995243156229\">Torbjorn Zetterlund</a>"], "photo_reference": "CmRaAAAAFeDQkouRG1kdImbb9ugvd4lxuIgpsbTCNhJ694iG72CjJhNtXZgOAE1xVRzWsO9vrcP41-sPg8yVf1abmM-ZnbrG0NHsS6y1mvXo4_JG2dIK00yAmClmLGawhmlxGMo_EhCqopT8eYQimE97g-PBDasoGhTnODHnz7HM3esMocdGy7ntviMPLQ", "width": 4032}], "place_id": "ChIJ0RfXoSQKkEcRzmJzG7SI4-o", "plus_code": {"compound_code": "9GG7+W6 Z\u00fcrich, Switzerland", "global_code": "8FVC9GG7+W6"}, "rating": 4.1, "reference": "ChIJ0RfXoSQKkEcRzmJzG7SI4-o", "scope": "GOOGLE", "types": ["restaurant", "food", "point_of_interest", "establishment"], "user_ratings_total": 7, "vicinity": "Zypressenstrasse 50, Z\u00fcrich"}, {"geometry": {"location": {"lat": 47.37733389999999, "lng": 8.5130775}, "viewport": {"northeast": {"lat": 47.37872778029149, "lng": 8.514360780291502}, "southwest": {"lat": 47.3760298197085, "lng": 8.511662819708498}}}, "icon": "https://maps.gstatic.com/mapfiles/place_api/icons/restaurant-71.png", "id": "69618d9c287d3aaaca72ebaa91544e22656d857c", "name": "R Bistro", "opening_hours": {"open_now": false}, "photos": [{"height": 1960, "html_attributions": ["<a href=\"https://maps.google.com/maps/contrib/109002897995243156229\">Torbjorn Zetterlund</a>"], "photo_reference": "CmRaAAAAXY5JjnoMMw2VOSeXjd75WrdEz3FzVMFxYmrOUasQfBkFN3XGVyPmkzel2fUhaiom1o8TIe_H_KC4p6Nmvb1JGwULet9uOqzwnx5Tx4ivtAfv5xaghwHnZfGkAP1-EbcQEhDLG5ATzVI3nP7fwKtoBRfCGhQFNu0_7FdwRGw-5d7Dk16Qr-u3mg", "width": 4032}], "place_id": "ChIJa6azgbMLkEcRjcC8T0tkUbE", "plus_code": {"compound_code": "9GG7+W6 Z\u00fcrich, Switzerland", "global_code": "8FVC9GG7+W6"}, "rating": 4.7, "reference": "ChIJa6azgbMLkEcRjcC8T0tkUbE", "scope": "GOOGLE", "types": ["restaurant", "food", "point_of_interest", "establishment"], "user_ratings_total": 13, "vicinity": "Zypressenstrasse 50, Z\u00fcrich"}, {"geometry": {"location": {"lat": 47.3773874, "lng": 8.5130868}, "viewport": {"northeast": {"lat": 47.37877013029149, "lng": 8.514388680291503}, "southwest": {"lat": 47.37607216970849, "lng": 8.511690719708499}}}, "icon": "https://maps.gstatic.com/mapfiles/place_api/icons/restaurant-71.png", "id": "a08d7d6312f72eff410e0c7b3a8d753e74d44d65", "name": "MB Bistro", "place_id": "ChIJ08YooCQKkEcRD7g3ZMT5Yv8", "plus_code": {"compound_code": "9GG7+X6 Z\u00fcrich, Switzerland", "global_code": "8FVC9GG7+X6"}, "rating": 3.3, "reference": "ChIJ08YooCQKkEcRD7g3ZMT5Yv8", "scope": "GOOGLE", "types": ["restaurant", "food", "point_of_interest", "establishment"], "user_ratings_total": 3, "vicinity": "Zypressenstrasse 50, Z\u00fcrich"}, {"geometry": {"location": {"lat": 47.37716289999999, "lng": 8.513286599999999}, "viewport": {"northeast": {"lat": 47.3784869302915, "lng": 8.514609680291503}, "southwest": {"lat": 47.3757889697085, "lng": 8.511911719708499}}}, "icon": "https://maps.gstatic.com/mapfiles/place_api/icons/restaurant-71.png", "id": "df4618adb935a898e4102f0e781dcabaa6b0d90d", "name": "A1 Albis Asian", "opening_hours": {"open_now": false}, "photos": [{"height": 3024, "html_attributions": ["<a href=\"https://maps.google.com/maps/contrib/103037224844131042882\">Utsav Sharma</a>"], "photo_reference": "CmRaAAAA7jctAC2mItNitYurNnQEp7iPe6Y7m_Mk6lrnsksJY4E_VL7fAMT8Kq2gyE13_98hPxHYXC96D7M0hzQ5fQZGTaTD65ridlFVE7XTiqpFviOYS3ODa9g_LNEBdOGX2O9tEhDhDVeIguX98aRmz1F5n6RHGhRanECn1h9mycXsxlD-nIK4wzOnhQ", "width": 4032}], "place_id": "ChIJ29S_YSMKkEcR0NSN0OFqJQ0", "plus_code": {"compound_code": "9GG7+V8 Z\u00fcrich, Switzerland", "global_code": "8FVC9GG7+V8"}, "rating": 4.3, "reference": "ChIJ29S_YSMKkEcR0NSN0OFqJQ0", "scope": "GOOGLE", "types": ["restaurant", "food", "point_of_interest", "establishment"], "user_ratings_total": 9, "vicinity": "Badenerstrasse 298, Z\u00fcrich"}, {"geometry": {"location": {"lat": 47.3774695, "lng": 8.513157099999999}, "viewport": {"northeast": {"lat": 47.3788427802915, "lng": 8.5144706802915}, "southwest": {"lat": 47.3761448197085, "lng": 8.511772719708496}}}, "icon": "https://maps.gstatic.com/mapfiles/place_api/icons/restaurant-71.png", "id": "ecb6ea424d9eaeb7f471206be2d878052448c9e6", "name": "DelhiHouse of Bestcurry", "opening_hours": {"open_now": false}, "photos": [{"height": 480, "html_attributions": ["<a href=\"https://maps.google.com/maps/contrib/103319679895357908991\">DelhiHouse of Bestcurry</a>"], "photo_reference": "CmRZAAAAdvPHD6x3fkkN6sa_4Eo321C71mMmC8rQj3-iuaX0u8M_9hlLPjtoVmweQIYIG4xKiwT0yIdojoQgGMKk_S-3Uwk-92Sgep2sRaA-vySttdcFNHkVfIR1zoHwGQJqWnjNEhAzZUe7CNm-Kz3Fw5vEj1ZIGhSrGynI50TnuuzLiQJoCnRogIPEzA", "width": 640}], "place_id": "ChIJcUVCoCQKkEcR9FkOaQ02w0Q", "plus_code": {"compound_code": "9GG7+X7 Z\u00fcrich, Switzerland", "global_code": "8FVC9GG7+X7"}, "price_level": 2, "rating": 4.6, "reference": "ChIJcUVCoCQKkEcR9FkOaQ02w0Q", "scope": "GOOGLE", "types": ["meal_takeaway", "restaurant", "food", "point_of_interest", "establishment"], "user_ratings_total": 298, "vicinity": "Zypressenstrasse 52, Z\u00fcrich"}, {"geometry": {"location": {"lat": 47.3774421, "lng": 8.5131749}, "viewport": {"northeast": {"lat": 47.3788248802915, "lng": 8.514473480291501}, "southwest": {"lat": 47.3761269197085, "lng": 8.511775519708497}}}, "icon": "https://maps.gstatic.com/mapfiles/place_api/icons/restaurant-71.png", "id": "5f97c25621a953ec9bfeb25c6fb264d23571e38a", "name": "BestEat lunches of Bestcurry", "opening_hours": {"open_now": false}, "photos": [{"height": 1512, "html_attributions": ["<a href=\"https://maps.google.com/maps/contrib/107789750724118719407\">BestEat lunches of Bestcurry</a>"], "photo_reference": "CmRaAAAACPmAbt6JWJvWXAzSXim65eGUz2YulKTfgbbrnpef5jmuq-YzdQvstb59NXmsx1dDACbOIQ9TQgTwfQgdgbK67SV1IlIoirMg3jjNJwCKFcGe-hisCnlZLCQPLf8JOmeGEhDIDTt4RuH7yURslwczFlk1GhTPbSj_S0N0mhapepdc5JapR44IQA", "width": 2016}], "place_id": "ChIJRRzSQrULkEcRN7RzN3peLDI", "plus_code": {"compound_code": "9GG7+X7 Z\u00fcrich, Switzerland", "global_code": "8FVC9GG7+X7"}, "reference": "ChIJRRzSQrULkEcRN7RzN3peLDI", "scope": "GOOGLE", "types": ["restaurant", "food", "point_of_interest", "establishment"], "vicinity": "Zypressenstrasse 52, Z\u00fcrich"}, {"geometry": {"location": {"lat": 47.3765995, "lng": 8.513838200000002}, "viewport": {"northeast": {"lat": 47.3779675302915, "lng": 8.515208330291502}, "southwest": {"lat": 47.3752695697085, "lng": 8.512510369708497}}}, "icon": "https://maps.gstatic.com/mapfiles/place_api/icons/cafe-71.png", "id": "6fb5b17e12473ed720a7dd8fa76c2de16e80e5c5", "name": "Tania's Coffee", "opening_hours": {"open_now": false}, "photos": [{"height": 1699, "html_attributions": ["<a href=\"https://maps.google.com/maps/contrib/114615406667234681206\">Tania&#39;s Coffee</a>"], "photo_reference": "CmRaAAAA7CUxUEQLqwl_HoSEbnWAPB5znRJaSJ7eir_uUUv44GG9kbhYgOBYV78V45zuTbbsE4P6uD2DpP4YWCywPpEJMSGos_a5-yaO36_Tj4V-hVH8E5jO-y2MgIa9HtnKRLJoEhCHEV_I47t13iiE7l_lBhI-GhQR2OH-Bxhur_9RxOOCxT-VGfkdCg", "width": 3024}], "place_id": "ChIJ3WYaPqELkEcRp5KYEGlZTfQ", "plus_code": {"compound_code": "9GG7+JG Z\u00fcrich, Switzerland", "global_code": "8FVC9GG7+JG"}, "rating": 5, "reference": "ChIJ3WYaPqELkEcRp5KYEGlZTfQ", "scope": "GOOGLE", "types": ["meal_takeaway", "cafe", "restaurant", "food", "point_of_interest", "store", "establishment"], "user_ratings_total": 58, "vicinity": "Badenerstrasse 287, Z\u00fcrich"}, {"geometry": {"location": {"lat": 47.3746795, "lng": 8.512749500000002}, "viewport": {"northeast": {"lat": 47.37607333029149, "lng": 8.514041380291502}, "southwest": {"lat": 47.3733753697085, "lng": 8.511343419708497}}}, "icon": "https://maps.gstatic.com/mapfiles/place_api/icons/restaurant-71.png", "id": "196b479206e7ad2c4ecf03c6a9e924728bb4fe3f", "name": "Grotto Reale", "opening_hours": {"open_now": false}, "photos": [{"height": 2592, "html_attributions": ["<a href=\"https://maps.google.com/maps/contrib/108019581756484703984\">Grotto Reale</a>"], "photo_reference": "CmRaAAAA2zX-O_G--0-W_Tx59gLM4GR7GXImoq-vdnQrrJDwJru0V8iRv8h5xXmh7MkveySlxI0lh7aP9DKVaR8CWANV66d_v66OVZjZy2XhcPF78_RAXkRGs9Rw53qGMqHPZfQgEhC_TVpf3ajlgl8QxbhL1B1xGhSjnwl7qY8V8cLAE5I-2feeov4qtA", "width": 3888}], "place_id": "ChIJ67Fq9CMKkEcRI8LvsQaO5ZI", "plus_code": {"compound_code": "9GF7+V3 Z\u00fcrich, Switzerland", "global_code": "8FVC9GF7+V3"}, "price_level": 2, "rating": 4.4, "reference": "ChIJ67Fq9CMKkEcRI8LvsQaO5ZI", "scope": "GOOGLE", "types": ["restaurant", "food", "point_of_interest", "establishment"], "user_ratings_total": 143, "vicinity": "Martastrasse 145, Z\u00fcrich"}, {"geometry": {"location": {"lat": 47.37632170000001, "lng": 8.514205999999998}, "viewport": {"northeast": {"lat": 47.3777293802915, "lng": 8.515614280291501}, "southwest": {"lat": 47.3750314197085, "lng": 8.512916319708497}}}, "icon": "https://maps.gstatic.com/mapfiles/place_api/icons/restaurant-71.png", "id": "c843f2673f27ebb92c0d93fad7229f18acc5aa89", "name": "L\u00c9G\u00c8RE", "opening_hours": {"open_now": true}, "photos": [{"height": 3024, "html_attributions": ["<a href=\"https://maps.google.com/maps/contrib/105026883933696889400\">Sebastian Schaub</a>"], "photo_reference": "CmRaAAAAYhWERm5IvcguIHpklMFQdp9-acAXrxa1aVguS9t6Deg2QTaOLpwmKA6DnlsBwQEhe1-32pCLfkAueRwN5ZGAJJQISSMtucVHK6GH41T6HNoKVkTGgkCg7TqrjIL3pZQrEhCia3pnYSS24YxacC4sMglkGhRBNOV1vgDRSh8SeR4EPeZpcmCGqA", "width": 4032}], "place_id": "ChIJT5Wo0JILkEcRYaLSXGBRYSY", "plus_code": {"compound_code": "9GG7+GM Z\u00fcrich, Switzerland", "global_code": "8FVC9GG7+GM"}, "rating": 4.9, "reference": "ChIJT5Wo0JILkEcRYaLSXGBRYSY", "scope": "GOOGLE", "types": ["restaurant", "food", "point_of_interest", "establishment"], "user_ratings_total": 34, "vicinity": "Badenerstrasse 281, Z\u00fcrich"}], "status": "OK"}